[
  {
    "Communications": [
      {
        "Freqs": [
          {
            "id": 2075,
            "Freq": 118.82
          }
        ],
        "id": 1444,
        "Name": "AWOS 3"
      },
      {
        "Freqs": [
          {
            "id": 2076,
            "Freq": 126.20
          },
          {
            "id": 2077,
            "Freq": 241.90
          }
        ],
        "id": 1445,
        "Name": "CTAF"
      },
      {
        "Freqs": [
          {
            "id": 2078,
            "Freq": 128.80
          },
          {
            "id": 2079,
            "Freq": 285.50
          }
        ],
        "id": 1446,
        "Name": "OAKLAND CNTR"
      }
    ],
    "Navaids": [
      {
        "id": 2945,
        "Name": "AMEDEE",
        "Ident": "AHC",
        "Type": "VOR_DME",
        "Lat": 40.26,
        "Lon": -120.15,
        "Frequency": 109.00,
        "Channel": 27,
        "Tacan_DME_Mode": "X",
        "Course": 332.00,
        "Distance": 0.10
      },
      {
        "id": 2946,
        "Name": "MUSTANG",
        "Ident": "FMG",
        "Type": "VORTAC",
        "Lat": 39.53,
        "Lon": -119.65,
        "Frequency": 117.90,
        "Channel": 126,
        "Tacan_DME_Mode": "X",
        "Course": 152.00,
        "Distance": 49.60
      },
      {
        "id": 2947,
        "Name": "SQUAW VALLEY",
        "Ident": "SWR",
        "Type": "VOR_DME",
        "Lat": 39.18,
        "Lon": -120.26,
        "Frequency": 113.20,
        "Channel": 79,
        "Tacan_DME_Mode": "X",
        "Course": 185.00,
        "Distance": 65.30
      },
      {
        "id": 2948,
        "Name": "HAZEN",
        "Ident": "HZN",
        "Type": "VORTAC",
        "Lat": 39.51,
        "Lon": -118.99,
        "Frequency": 114.10,
        "Channel": 88,
        "Tacan_DME_Mode": "X",
        "Course": 130.00,
        "Distance": 69.70
      },
      {
        "id": 2949,
        "Name": "LOVELOCK",
        "Ident": "LLC",
        "Type": "VORTAC",
        "Lat": 40.12,
        "Lon": -118.57,
        "Frequency": 116.50,
        "Channel": 112,
        "Tacan_DME_Mode": "X",
        "Course": 96.00,
        "Distance": 72.80
      },
      {
        "id": 2950,
        "Name": "CHICO",
        "Ident": "CIC",
        "Type": "VOR_DME",
        "Lat": 39.78,
        "Lon": -121.84,
        "Frequency": 109.80,
        "Channel": 35,
        "Tacan_DME_Mode": "X",
        "Course": 250.00,
        "Distance": 83.20
      },
      {
        "id": 2951,
        "Name": "FALLON",
        "Ident": "NFL",
        "Type": "TACAN",
        "Lat": 39.41,
        "Lon": -118.70,
        "Frequency": 0.00,
        "Channel": 82,
        "Tacan_DME_Mode": "X",
        "Course": 127.00,
        "Distance": 84.00
      },
      {
        "id": 2952,
        "Name": "BEALE",
        "Ident": "BAB",
        "Type": "TACAN",
        "Lat": 39.13,
        "Lon": -121.44,
        "Frequency": 0.00,
        "Channel": 23,
        "Tacan_DME_Mode": "X",
        "Course": 222.00,
        "Distance": 90.40
      },
      {
        "id": 2953,
        "Name": "HALOW",
        "Ident": "MY",
        "Type": "NDB",
        "Lat": 39.16,
        "Lon": -121.60,
        "Frequency": 222.00,
        "Channel": -1,
        "Tacan_DME_Mode": "",
        "Course": 226.00,
        "Distance": 94.30
      },
      {
        "id": 2954,
        "Name": "MARYSVILLE",
        "Ident": "MYV",
        "Type": "VOR_DME",
        "Lat": 39.09,
        "Lon": -121.57,
        "Frequency": 110.80,
        "Channel": 45,
        "Tacan_DME_Mode": "X",
        "Course": 224.00,
        "Distance": 96.10
      }
    ],
    "Runways": [
      {
        "id": 463,
        "lowID": "08",
        "highID": "26",
        "Length": 10000.00,
        "Width": 150.00,
        "SurfaceType": "ASP",
        "RunwayCondition": "G",
        "MagHdgHi": 264.60,
        "MagHdgLow": 84.60,
        "TrueHdgHi": 279.00,
        "TrueHdgLow": 99.00,
        "Coord_Lat_Hi": 40.26,
        "Coord_Lat_Lo": 0.00,
        "Coord_Lon_Hi": -120.13,
        "Coord_Lon_Lo": -120.16,
        "Elev_Hi": 4012.00,
        "Elev_Low": 4007.00,
        "Slope_Hi": 0.10,
        "Slope_Low": 0.10,
        "TDZE_Hi": 4012.00,
        "TDZE_Low": 4008.00,
        "Overrun_Hi_Length": 1005.00,
        "Overrun_Low_Length": 1000.00,
        "Overrun_Hi_Type": "ASP",
        "Overrun_Low_Type": "ASP"
      }
    ],
    "id": 343,
    "ICAO": "KAHC",
    "FAA": "AHC",
    "Country": "United States",
    "Name": "AMEDEE AAF",
    "State": "California",
    "Elevation": 4011.60,
    "Lat": 40.26,
    "Lon": -120.15,
    "MGRS": "10TGK4229361168",
    "Time_Conversion": "UTC-8(-7DT)"
  },
  {
    "Communications": [
      {
        "Freqs": [
          {
            "id": 2080,
            "Freq": 118.52
          }
        ],
        "id": 1447,
        "Name": "ASOS"
      },
      {
        "Freqs": [
          {
            "id": 2081,
            "Freq": 345.00
          },
          {
            "id": 2082,
            "Freq": 3120.00
          },
          {
            "id": 2083,
            "Freq": 5696.00
          }
        ],
        "id": 1448,
        "Name": "COAST GUARD AIR OPS"
      },
      {
        "Freqs": [
          {
            "id": 2084,
            "Freq": 123.00
          }
        ],
        "id": 1449,
        "Name": "CTAF/UNICOM"
      },
      {
        "Freqs": [
          {
            "id": 2085,
            "Freq": 122.60
          }
        ],
        "id": 1450,
        "Name": "OAKLAND RDO"
      },
      {
        "Freqs": [
          {
            "id": 2086,
            "Freq": 124.85
          },
          {
            "id": 2087,
            "Freq": 306.30
          }
        ],
        "id": 1451,
        "Name": "SEATTLE CNTR"
      }
    ],
    "Navaids": [
      {
        "id": 2955,
        "Name": "ARCATA",
        "Ident": "ACV",
        "Type": "VOR_DME",
        "Lat": 40.98,
        "Lon": -124.10,
        "Frequency": 110.20,
        "Channel": 39,
        "Tacan_DME_Mode": "X",
        "Course": 2.00,
        "Distance": 0.20
      },
      {
        "id": 2956,
        "Name": "ABETA",
        "Ident": "CV",
        "Type": "NDB",
        "Lat": 40.96,
        "Lon": -124.09,
        "Frequency": 233.00,
        "Channel": -1,
        "Tacan_DME_Mode": "",
        "Course": 152.00,
        "Distance": 0.90
      },
      {
        "id": 2957,
        "Name": "FORTUNA",
        "Ident": "FOT",
        "Type": "VORTAC",
        "Lat": 40.67,
        "Lon": -124.23,
        "Frequency": 114.00,
        "Channel": 87,
        "Tacan_DME_Mode": "X",
        "Course": 197.00,
        "Distance": 19.30
      },
      {
        "id": 2958,
        "Name": "CRESCENT CITY",
        "Ident": "CEC",
        "Type": "VORTAC",
        "Lat": 41.77,
        "Lon": -124.24,
        "Frequency": 109.00,
        "Channel": 27,
        "Tacan_DME_Mode": "X",
        "Course": 353.00,
        "Distance": 48.40
      },
      {
        "id": 2959,
        "Name": "FORT JONES",
        "Ident": "FJS",
        "Type": "VOR_DME",
        "Lat": 41.44,
        "Lon": -122.80,
        "Frequency": 109.60,
        "Channel": 33,
        "Tacan_DME_Mode": "X",
        "Course": 64.00,
        "Distance": 65.40
      },
      {
        "id": 2960,
        "Name": "MONTAGUE",
        "Ident": "MOG",
        "Type": "NDB",
        "Lat": 41.72,
        "Lon": -122.48,
        "Frequency": 404.00,
        "Channel": -1,
        "Tacan_DME_Mode": "",
        "Course": 58.00,
        "Distance": 86.20
      },
      {
        "id": 2961,
        "Name": "REDDING",
        "Ident": "RDD",
        "Type": "VOR_DME",
        "Lat": 40.50,
        "Lon": -122.29,
        "Frequency": 108.40,
        "Channel": 21,
        "Tacan_DME_Mode": "X",
        "Course": 108.00,
        "Distance": 87.60
      },
      {
        "id": 2962,
        "Name": "RED BLUFF",
        "Ident": "RBL",
        "Type": "VORTAC",
        "Lat": 40.09,
        "Lon": -122.23,
        "Frequency": 115.70,
        "Channel": 104,
        "Tacan_DME_Mode": "X",
        "Course": 121.00,
        "Distance": 100.60
      },
      {
        "id": 2963,
        "Name": "MEDFORD",
        "Ident": "MEF",
        "Type": "NDB",
        "Lat": 42.39,
        "Lon": -122.87,
        "Frequency": 356.00,
        "Channel": -1,
        "Tacan_DME_Mode": "",
        "Course": 33.00,
        "Distance": 101.20
      },
      {
        "id": 2964,
        "Name": "PUMIE",
        "Ident": "MF",
        "Type": "NDB",
        "Lat": 42.45,
        "Lon": -122.91,
        "Frequency": 373.00,
        "Channel": -1,
        "Tacan_DME_Mode": "",
        "Course": 31.00,
        "Distance": 103.40
      }
    ],
    "Runways": [
      {
        "id": 464,
        "lowID": "14",
        "highID": "32",
        "Length": 6046.00,
        "Width": 150.00,
        "SurfaceType": "ASP",
        "RunwayCondition": "G",
        "MagHdgHi": 317.50,
        "MagHdgLow": 137.50,
        "TrueHdgHi": 332.70,
        "TrueHdgLow": 152.70,
        "Coord_Lat_Hi": 40.98,
        "Coord_Lat_Lo": 0.00,
        "Coord_Lon_Hi": -124.10,
        "Coord_Lon_Lo": -124.11,
        "Elev_Hi": 222.00,
        "Elev_Low": 183.00,
        "Slope_Hi": 0.70,
        "Slope_Low": 0.70,
        "TDZE_Hi": 222.00,
        "TDZE_Low": 205.00,
        "Overrun_Hi_Length": 0.00,
        "Overrun_Low_Length": 0.00,
        "Overrun_Hi_Type": "AM2",
        "Overrun_Low_Type": "AM2"
      },
      {
        "id": 465,
        "lowID": "01",
        "highID": "19",
        "Length": 4501.00,
        "Width": 150.00,
        "SurfaceType": "ASP",
        "RunwayCondition": "G",
        "MagHdgHi": 194.50,
        "MagHdgLow": 14.50,
        "TrueHdgHi": 209.70,
        "TrueHdgLow": 29.70,
        "Coord_Lat_Hi": 40.97,
        "Coord_Lat_Lo": 0.00,
        "Coord_Lon_Hi": -124.10,
        "Coord_Lon_Lo": -124.11,
        "Elev_Hi": 208.00,
        "Elev_Low": 187.00,
        "Slope_Hi": 0.50,
        "Slope_Low": 0.50,
        "TDZE_Hi": 208.00,
        "TDZE_Low": 204.00,
        "Overrun_Hi_Length": 0.00,
        "Overrun_Low_Length": 0.00,
        "Overrun_Hi_Type": "AM2",
        "Overrun_Low_Type": "AM2"
      }
    ],
    "id": 344,
    "ICAO": "KACV",
    "FAA": "ACV",
    "Country": "United States",
    "Name": "CALIFORNIA REDWOOD COAST HUMBOLDT CO",
    "State": "California",
    "Elevation": 222.30,
    "Lat": 40.97,
    "Lon": -124.10,
    "MGRS": "10TDL0674436888",
    "Time_Conversion": "UTC-8(-7DT)"
  },
  {
    "Communications": [
      {
        "Freqs": [
          {
            "id": 2088,
            "Freq": 120.77
          }
        ],
        "id": 1452,
        "Name": "ASOS"
      },
      {
        "Freqs": [
          {
            "id": 2089,
            "Freq": 123.00
          }
        ],
        "id": 1453,
        "Name": "CTAF/UNICOM"
      },
      {
        "Freqs": [
          {
            "id": 2090,
            "Freq": 132.20
          },
          {
            "id": 2091,
            "Freq": 350.30
          }
        ],
        "id": 1454,
        "Name": "OAKLAND CNTR"
      },
      {
        "Freqs": [
          {
            "id": 2092,
            "Freq": 122.40
          },
          {
            "id": 2093,
            "Freq": 255.40
          }
        ],
        "id": 1455,
        "Name": "RANCHO RDO"
      }
    ],
    "Navaids": [
      {
        "id": 2965,
        "Name": "RED BLUFF",
        "Ident": "RBL",
        "Type": "VORTAC",
        "Lat": 40.09,
        "Lon": -122.23,
        "Frequency": 115.70,
        "Channel": 104,
        "Tacan_DME_Mode": "X",
        "Course": 167.00,
        "Distance": 3.20
      },
      {
        "id": 2966,
        "Name": "REDDING",
        "Ident": "RDD",
        "Type": "VOR_DME",
        "Lat": 40.50,
        "Lon": -122.29,
        "Frequency": 108.40,
        "Channel": 21,
        "Tacan_DME_Mode": "X",
        "Course": 355.00,
        "Distance": 21.30
      },
      {
        "id": 2967,
        "Name": "CHICO",
        "Ident": "CIC",
        "Type": "VOR_DME",
        "Lat": 39.78,
        "Lon": -121.84,
        "Frequency": 109.80,
        "Channel": 35,
        "Tacan_DME_Mode": "X",
        "Course": 139.00,
        "Distance": 28.60
      },
      {
        "id": 2968,
        "Name": "WILLIAMS",
        "Ident": "ILA",
        "Type": "VORTAC",
        "Lat": 39.07,
        "Lon": -122.02,
        "Frequency": 114.40,
        "Channel": 91,
        "Tacan_DME_Mode": "X",
        "Course": 171.00,
        "Distance": 65.50
      },
      {
        "id": 2969,
        "Name": "HALOW",
        "Ident": "MY",
        "Type": "NDB",
        "Lat": 39.16,
        "Lon": -121.60,
        "Frequency": 222.00,
        "Channel": -1,
        "Tacan_DME_Mode": "",
        "Course": 153.00,
        "Distance": 65.90
      },
      {
        "id": 2970,
        "Name": "KEARN",
        "Ident": "UK",
        "Type": "NDB",
        "Lat": 39.27,
        "Lon": -123.24,
        "Frequency": 371.00,
        "Channel": -1,
        "Tacan_DME_Mode": "",
        "Course": 221.00,
        "Distance": 69.60
      },
      {
        "id": 2971,
        "Name": "MARYSVILLE",
        "Ident": "MYV",
        "Type": "VOR_DME",
        "Lat": 39.09,
        "Lon": -121.57,
        "Frequency": 110.80,
        "Channel": 45,
        "Tacan_DME_Mode": "X",
        "Course": 153.00,
        "Distance": 70.50
      },
      {
        "id": 2972,
        "Name": "BEALE",
        "Ident": "BAB",
        "Type": "TACAN",
        "Lat": 39.13,
        "Lon": -121.44,
        "Frequency": 0.00,
        "Channel": 23,
        "Tacan_DME_Mode": "X",
        "Course": 148.00,
        "Distance": 71.60
      },
      {
        "id": 2973,
        "Name": "MENDOCINO",
        "Ident": "ENI",
        "Type": "VORTAC",
        "Lat": 39.05,
        "Lon": -123.27,
        "Frequency": 112.30,
        "Channel": 70,
        "Tacan_DME_Mode": "X",
        "Course": 216.00,
        "Distance": 81.10
      },
      {
        "id": 2974,
        "Name": "FORT JONES",
        "Ident": "FJS",
        "Type": "VOR_DME",
        "Lat": 41.44,
        "Lon": -122.80,
        "Frequency": 109.60,
        "Channel": 33,
        "Tacan_DME_Mode": "X",
        "Course": 342.00,
        "Distance": 81.90
      }
    ],
    "Runways": [
      {
        "id": 466,
        "lowID": "15",
        "highID": "33",
        "Length": 5431.00,
        "Width": 100.00,
        "SurfaceType": "ASP",
        "RunwayCondition": "G",
        "MagHdgHi": 333.40,
        "MagHdgLow": 153.40,
        "TrueHdgHi": 348.10,
        "TrueHdgLow": 168.10,
        "Coord_Lat_Hi": 40.15,
        "Coord_Lat_Lo": 0.00,
        "Coord_Lon_Hi": -122.25,
        "Coord_Lon_Lo": -122.25,
        "Elev_Hi": 344.00,
        "Elev_Low": 347.00,
        "Slope_Hi": 0.10,
        "Slope_Low": 0.10,
        "TDZE_Hi": 352.00,
        "TDZE_Low": 352.00,
        "Overrun_Hi_Length": 0.00,
        "Overrun_Low_Length": 0.00,
        "Overrun_Hi_Type": "AM2",
        "Overrun_Low_Type": "AM2"
      }
    ],
    "id": 345,
    "ICAO": "KRBL",
    "FAA": "RBL",
    "Country": "United States",
    "Name": "RED BLUFF MUNI",
    "State": "California",
    "Elevation": 352.30,
    "Lat": 40.15,
    "Lon": -122.25,
    "MGRS": "10TEK6369344708",
    "Time_Conversion": "UTC-8(-7DT)"
  },
  {
    "Communications": [
      {
        "Freqs": [
          {
            "id": 2094,
            "Freq": 119.92
          }
        ],
        "id": 1456,
        "Name": "ASOS"
      },
      {
        "Freqs": [
          {
            "id": 2095,
            "Freq": 122.80
          }
        ],
        "id": 1457,
        "Name": "CTAF"
      },
      {
        "Freqs": [
          {
            "id": 2096,
            "Freq": 122.30
          }
        ],
        "id": 1458,
        "Name": "OAKLAND RDO"
      },
      {
        "Freqs": [
          {
            "id": 2097,
            "Freq": 124.85
          },
          {
            "id": 2098,
            "Freq": 306.30
          }
        ],
        "id": 1459,
        "Name": "SEATTLE CNTR"
      },
      {
        "Freqs": [
          {
            "id": 2099,
            "Freq": 122.80
          }
        ],
        "id": 1460,
        "Name": "UNICOM"
      }
    ],
    "Navaids": [
      {
        "id": 2975,
        "Name": "CRESCENT CITY",
        "Ident": "CEC",
        "Type": "VORTAC",
        "Lat": 41.77,
        "Lon": -124.24,
        "Frequency": 109.00,
        "Channel": 27,
        "Tacan_DME_Mode": "X",
        "Course": 260.00,
        "Distance": 0.20
      },
      {
        "id": 2976,
        "Name": "ARCATA",
        "Ident": "ACV",
        "Type": "VOR_DME",
        "Lat": 40.98,
        "Lon": -124.10,
        "Frequency": 110.20,
        "Channel": 39,
        "Tacan_DME_Mode": "X",
        "Course": 173.00,
        "Distance": 48.20
      },
      {
        "id": 2977,
        "Name": "ABETA",
        "Ident": "CV",
        "Type": "NDB",
        "Lat": 40.96,
        "Lon": -124.09,
        "Frequency": 233.00,
        "Channel": -1,
        "Tacan_DME_Mode": "",
        "Course": 173.00,
        "Distance": 49.30
      },
      {
        "id": 2978,
        "Name": "FORTUNA",
        "Ident": "FOT",
        "Type": "VORTAC",
        "Lat": 40.67,
        "Lon": -124.23,
        "Frequency": 114.00,
        "Channel": 87,
        "Tacan_DME_Mode": "X",
        "Course": 180.00,
        "Distance": 66.50
      },
      {
        "id": 2979,
        "Name": "FORT JONES",
        "Ident": "FJS",
        "Type": "VOR_DME",
        "Lat": 41.44,
        "Lon": -122.80,
        "Frequency": 109.60,
        "Channel": 33,
        "Tacan_DME_Mode": "X",
        "Course": 107.00,
        "Distance": 67.30
      },
      {
        "id": 2980,
        "Name": "MEDFORD",
        "Ident": "MEF",
        "Type": "NDB",
        "Lat": 42.39,
        "Lon": -122.87,
        "Frequency": 356.00,
        "Channel": -1,
        "Tacan_DME_Mode": "",
        "Course": 58.00,
        "Distance": 70.90
      },
      {
        "id": 2981,
        "Name": "PUMIE",
        "Ident": "MF",
        "Type": "NDB",
        "Lat": 42.45,
        "Lon": -122.91,
        "Frequency": 373.00,
        "Channel": -1,
        "Tacan_DME_Mode": "",
        "Course": 55.00,
        "Distance": 71.50
      },
      {
        "id": 2982,
        "Name": "ROGUE VALLEY",
        "Ident": "OED",
        "Type": "VORTAC",
        "Lat": 42.47,
        "Lon": -122.91,
        "Frequency": 113.60,
        "Channel": 83,
        "Tacan_DME_Mode": "X",
        "Course": 54.00,
        "Distance": 72.50
      },
      {
        "id": 2983,
        "Name": "MONTAGUE",
        "Ident": "MOG",
        "Type": "NDB",
        "Lat": 41.72,
        "Lon": -122.48,
        "Frequency": 404.00,
        "Channel": -1,
        "Tacan_DME_Mode": "",
        "Course": 92.00,
        "Distance": 78.90
      },
      {
        "id": 2984,
        "Name": "ROSEBURG",
        "Ident": "RBG",
        "Type": "VOR_DME",
        "Lat": 43.18,
        "Lon": -123.35,
        "Frequency": 108.20,
        "Channel": 19,
        "Tacan_DME_Mode": "X",
        "Course": 25.00,
        "Distance": 92.80
      }
    ],
    "Runways": [
      {
        "id": 467,
        "lowID": "12",
        "highID": "30",
        "Length": 5002.00,
        "Width": 150.00,
        "SurfaceType": "ASP",
        "RunwayCondition": "G",
        "MagHdgHi": 299.20,
        "MagHdgLow": 119.20,
        "TrueHdgHi": 313.20,
        "TrueHdgLow": 133.20,
        "Coord_Lat_Hi": 41.78,
        "Coord_Lat_Lo": 0.00,
        "Coord_Lon_Hi": -124.22,
        "Coord_Lon_Lo": -124.24,
        "Elev_Hi": 53.00,
        "Elev_Low": 57.00,
        "Slope_Hi": 0.10,
        "Slope_Low": 0.10,
        "TDZE_Hi": 59.00,
        "TDZE_Low": 60.00,
        "Overrun_Hi_Length": 0.00,
        "Overrun_Low_Length": 0.00,
        "Overrun_Hi_Type": "AM2",
        "Overrun_Low_Type": "AM2"
      },
      {
        "id": 468,
        "lowID": "18",
        "highID": "36",
        "Length": 5000.00,
        "Width": 150.00,
        "SurfaceType": "ASP",
        "RunwayCondition": "G",
        "MagHdgHi": 359.20,
        "MagHdgLow": 179.20,
        "TrueHdgHi": 13.20,
        "TrueHdgLow": 193.20,
        "Coord_Lat_Hi": 41.78,
        "Coord_Lat_Lo": 0.00,
        "Coord_Lon_Hi": -124.24,
        "Coord_Lon_Lo": -124.23,
        "Elev_Hi": 51.00,
        "Elev_Low": 61.00,
        "Slope_Hi": 0.20,
        "Slope_Low": 0.20,
        "TDZE_Hi": 59.00,
        "TDZE_Low": 61.00,
        "Overrun_Hi_Length": 0.00,
        "Overrun_Low_Length": 0.00,
        "Overrun_Hi_Type": "AM2",
        "Overrun_Low_Type": "AM2"
      }
    ],
    "id": 346,
    "ICAO": "KCEC",
    "FAA": "CEC",
    "Country": "United States",
    "Name": "JACK MC NAMARA FLD",
    "State": "California",
    "Elevation": 60.70,
    "Lat": 41.78,
    "Lon": -124.23,
    "MGRS": "10TCM9724126108",
    "Time_Conversion": "UTC-8(-7DT)"
  },
  {
    "Communications": [
      {
        "Freqs": [
          {
            "id": 2100,
            "Freq": 124.17
          }
        ],
        "id": 1461,
        "Name": "ASOS"
      },
      {
        "Freqs": [
          {
            "id": 2101,
            "Freq": 122.80
          }
        ],
        "id": 1462,
        "Name": "CTAF/UNICOM"
      },
      {
        "Freqs": [
          {
            "id": 2102,
            "Freq": 127.60
          },
          {
            "id": 2103,
            "Freq": 346.35
          }
        ],
        "id": 1463,
        "Name": "SEATTLE CNTR"
      }
    ],
    "Navaids": [
      {
        "id": 2985,
        "Name": "LAKEVIEW",
        "Ident": "LKV",
        "Type": "VORTAC",
        "Lat": 42.49,
        "Lon": -120.50,
        "Frequency": 112.00,
        "Channel": 57,
        "Tacan_DME_Mode": "X",
        "Course": 2.00,
        "Distance": 60.60
      },
      {
        "id": 2986,
        "Name": "KLAMATH FALLS",
        "Ident": "LMT",
        "Type": "VORTAC",
        "Lat": 42.15,
        "Lon": -121.72,
        "Frequency": 115.90,
        "Channel": 106,
        "Tacan_DME_Mode": "X",
        "Course": 308.00,
        "Distance": 65.80
      },
      {
        "id": 2987,
        "Name": "AMEDEE",
        "Ident": "AHC",
        "Type": "VOR_DME",
        "Lat": 40.26,
        "Lon": -120.15,
        "Frequency": 109.00,
        "Channel": 27,
        "Tacan_DME_Mode": "X",
        "Course": 165.00,
        "Distance": 75.20
      },
      {
        "id": 2988,
        "Name": "MONTAGUE",
        "Ident": "MOG",
        "Type": "NDB",
        "Lat": 41.72,
        "Lon": -122.48,
        "Frequency": 404.00,
        "Channel": -1,
        "Tacan_DME_Mode": "",
        "Course": 280.00,
        "Distance": 87.50
      },
      {
        "id": 2989,
        "Name": "REDDING",
        "Ident": "RDD",
        "Type": "VOR_DME",
        "Lat": 40.50,
        "Lon": -122.29,
        "Frequency": 108.40,
        "Channel": 21,
        "Tacan_DME_Mode": "X",
        "Course": 234.00,
        "Distance": 97.90
      },
      {
        "id": 2990,
        "Name": "FORT JONES",
        "Ident": "FJS",
        "Type": "VOR_DME",
        "Lat": 41.44,
        "Lon": -122.80,
        "Frequency": 109.60,
        "Channel": 33,
        "Tacan_DME_Mode": "X",
        "Course": 270.00,
        "Distance": 101.10
      },
      {
        "id": 2991,
        "Name": "RED BLUFF",
        "Ident": "RBL",
        "Type": "VORTAC",
        "Lat": 40.09,
        "Lon": -122.23,
        "Frequency": 115.70,
        "Channel": 104,
        "Tacan_DME_Mode": "X",
        "Course": 223.00,
        "Distance": 112.60
      },
      {
        "id": 2992,
        "Name": "SOD HOUSE",
        "Ident": "SDO",
        "Type": "VORTAC",
        "Lat": 41.40,
        "Lon": -118.03,
        "Frequency": 114.30,
        "Channel": 90,
        "Tacan_DME_Mode": "X",
        "Course": 91.00,
        "Distance": 114.30
      },
      {
        "id": 2993,
        "Name": "CHICO",
        "Ident": "CIC",
        "Type": "VOR_DME",
        "Lat": 39.78,
        "Lon": -121.84,
        "Frequency": 109.80,
        "Channel": 35,
        "Tacan_DME_Mode": "X",
        "Course": 210.00,
        "Distance": 117.20
      },
      {
        "id": 2994,
        "Name": "MEDFORD",
        "Ident": "MEF",
        "Type": "NDB",
        "Lat": 42.39,
        "Lon": -122.87,
        "Frequency": 356.00,
        "Channel": -1,
        "Tacan_DME_Mode": "",
        "Course": 299.00,
        "Distance": 117.10
      }
    ],
    "Runways": [
      {
        "id": 469,
        "lowID": "13",
        "highID": "31",
        "Length": 4228.00,
        "Width": 50.00,
        "SurfaceType": "ASP",
        "RunwayCondition": "G",
        "MagHdgHi": 312.30,
        "MagHdgLow": 132.30,
        "TrueHdgHi": 328.30,
        "TrueHdgLow": 148.30,
        "Coord_Lat_Hi": 41.48,
        "Coord_Lat_Lo": 0.00,
        "Coord_Lon_Hi": -120.56,
        "Coord_Lon_Lo": -120.56,
        "Elev_Hi": 4378.00,
        "Elev_Low": 4369.00,
        "Slope_Hi": 0.20,
        "Slope_Low": 0.20,
        "TDZE_Hi": 4379.00,
        "TDZE_Low": 4372.00,
        "Overrun_Hi_Length": 0.00,
        "Overrun_Low_Length": 0.00,
        "Overrun_Hi_Type": "AM2",
        "Overrun_Low_Type": "AM2"
      },
      {
        "id": 470,
        "lowID": "03",
        "highID": "21",
        "Length": 2506.00,
        "Width": 60.00,
        "SurfaceType": "ASP",
        "RunwayCondition": "GE",
        "MagHdgHi": 210.20,
        "MagHdgLow": 30.20,
        "TrueHdgHi": 226.20,
        "TrueHdgLow": 46.20,
        "Coord_Lat_Hi": 41.48,
        "Coord_Lat_Lo": 0.00,
        "Coord_Lon_Hi": -120.56,
        "Coord_Lon_Lo": -120.56,
        "Elev_Hi": 4378.00,
        "Elev_Low": 4365.00,
        "Slope_Hi": 0.50,
        "Slope_Low": 0.50,
        "TDZE_Hi": 4378.00,
        "TDZE_Low": 4378.00,
        "Overrun_Hi_Length": 0.00,
        "Overrun_Low_Length": 0.00,
        "Overrun_Hi_Type": "AM2",
        "Overrun_Low_Type": "AM2"
      }
    ],
    "id": 347,
    "ICAO": "",
    "FAA": "AAT",
    "Country": "United States",
    "Name": "ALTURAS MUNI",
    "State": "California",
    "Elevation": 4378.30,
    "Lat": 41.48,
    "Lon": -120.56,
    "MGRS": "10TGL0325895223",
    "Time_Conversion": "UTC-8(-7DT)"
  },
  {
    "Communications": [
      {
        "Freqs": [
          {
            "id": 2104,
            "Freq": 122.70
          }
        ],
        "id": 1464,
        "Name": "CTAF/UNICOM"
      },
      {
        "Freqs": [
          {
            "id": 2105,
            "Freq": 122.35
          }
        ],
        "id": 1465,
        "Name": "OAKLAND RDO"
      },
      {
        "Freqs": [
          {
            "id": 2106,
            "Freq": 124.85
          },
          {
            "id": 2107,
            "Freq": 306.30
          }
        ],
        "id": 1466,
        "Name": "SEATTLE CNTR"
      }
    ],
    "Navaids": [
      {
        "id": 2995,
        "Name": "FORTUNA",
        "Ident": "FOT",
        "Type": "VORTAC",
        "Lat": 40.67,
        "Lon": -124.23,
        "Frequency": 114.00,
        "Channel": 87,
        "Tacan_DME_Mode": "X",
        "Course": 215.00,
        "Distance": 9.70
      },
      {
        "id": 2996,
        "Name": "ABETA",
        "Ident": "CV",
        "Type": "NDB",
        "Lat": 40.96,
        "Lon": -124.09,
        "Frequency": 233.00,
        "Channel": -1,
        "Tacan_DME_Mode": "",
        "Course": 4.00,
        "Distance": 9.70
      },
      {
        "id": 2997,
        "Name": "ARCATA",
        "Ident": "ACV",
        "Type": "VOR_DME",
        "Lat": 40.98,
        "Lon": -124.10,
        "Frequency": 110.20,
        "Channel": 39,
        "Tacan_DME_Mode": "X",
        "Course": 1.00,
        "Distance": 10.70
      },
      {
        "id": 2998,
        "Name": "CRESCENT CITY",
        "Ident": "CEC",
        "Type": "VORTAC",
        "Lat": 41.77,
        "Lon": -124.24,
        "Frequency": 109.00,
        "Channel": 27,
        "Tacan_DME_Mode": "X",
        "Course": 354.00,
        "Distance": 58.80
      },
      {
        "id": 2999,
        "Name": "FORT JONES",
        "Ident": "FJS",
        "Type": "VOR_DME",
        "Lat": 41.44,
        "Lon": -122.80,
        "Frequency": 109.60,
        "Channel": 33,
        "Tacan_DME_Mode": "X",
        "Course": 56.00,
        "Distance": 70.80
      },
      {
        "id": 3000,
        "Name": "REDDING",
        "Ident": "RDD",
        "Type": "VOR_DME",
        "Lat": 40.50,
        "Lon": -122.29,
        "Frequency": 108.40,
        "Channel": 21,
        "Tacan_DME_Mode": "X",
        "Course": 102.00,
        "Distance": 85.10
      },
      {
        "id": 3001,
        "Name": "MONTAGUE",
        "Ident": "MOG",
        "Type": "NDB",
        "Lat": 41.72,
        "Lon": -122.48,
        "Frequency": 404.00,
        "Channel": -1,
        "Tacan_DME_Mode": "",
        "Course": 53.00,
        "Distance": 92.30
      },
      {
        "id": 3002,
        "Name": "RED BLUFF",
        "Ident": "RBL",
        "Type": "VORTAC",
        "Lat": 40.09,
        "Lon": -122.23,
        "Frequency": 115.70,
        "Channel": 104,
        "Tacan_DME_Mode": "X",
        "Course": 116.00,
        "Distance": 95.80
      },
      {
        "id": 3003,
        "Name": "KEARN",
        "Ident": "UK",
        "Type": "NDB",
        "Lat": 39.27,
        "Lon": -123.24,
        "Frequency": 371.00,
        "Channel": -1,
        "Tacan_DME_Mode": "",
        "Course": 156.00,
        "Distance": 100.00
      },
      {
        "id": 3004,
        "Name": "MEDFORD",
        "Ident": "MEF",
        "Type": "NDB",
        "Lat": 42.39,
        "Lon": -122.87,
        "Frequency": 356.00,
        "Channel": -1,
        "Tacan_DME_Mode": "",
        "Course": 30.00,
        "Distance": 110.30
      }
    ],
    "Runways": [
      {
        "id": 471,
        "lowID": "12",
        "highID": "30",
        "Length": 3011.00,
        "Width": 75.00,
        "SurfaceType": "ASP",
        "RunwayCondition": "G",
        "MagHdgHi": 300.00,
        "MagHdgLow": 120.00,
        "TrueHdgHi": 315.00,
        "TrueHdgLow": 135.00,
        "Coord_Lat_Hi": 40.80,
        "Coord_Lat_Lo": 0.00,
        "Coord_Lon_Hi": -124.10,
        "Coord_Lon_Lo": -124.11,
        "Elev_Hi": 11.00,
        "Elev_Low": 6.00,
        "Slope_Hi": 0.10,
        "Slope_Low": 0.10,
        "TDZE_Hi": 11.00,
        "TDZE_Low": 11.00,
        "Overrun_Hi_Length": 0.00,
        "Overrun_Low_Length": 0.00,
        "Overrun_Hi_Type": "AM2",
        "Overrun_Low_Type": "AM2"
      },
      {
        "id": 472,
        "lowID": "07",
        "highID": "25",
        "Length": 2028.00,
        "Width": 50.00,
        "SurfaceType": "ASP",
        "RunwayCondition": "X",
        "MagHdgHi": 241.40,
        "MagHdgLow": 61.40,
        "TrueHdgHi": 258.30,
        "TrueHdgLow": 78.20,
        "Coord_Lat_Hi": 40.80,
        "Coord_Lat_Lo": 0.00,
        "Coord_Lon_Hi": -124.11,
        "Coord_Lon_Lo": -124.12,
        "Elev_Hi": 3.00,
        "Elev_Low": 2.00,
        "Slope_Hi": 0.00,
        "Slope_Low": 0.00,
        "TDZE_Hi": 0.00,
        "TDZE_Low": 0.00,
        "Overrun_Hi_Length": 0.00,
        "Overrun_Low_Length": 0.00,
        "Overrun_Hi_Type": "AM2",
        "Overrun_Low_Type": "AM2"
      }
    ],
    "id": 348,
    "ICAO": "KEKA",
    "FAA": "EKA",
    "Country": "United States",
    "Name": "MURRAY FLD",
    "State": "California",
    "Elevation": 10.80,
    "Lat": 40.80,
    "Lon": -124.11,
    "MGRS": "10TDL0613317527",
    "Time_Conversion": "UTC-8(-7DT)"
  },
  {
    "Communications": [
      {
        "Freqs": [
          {
            "id": 2108,
            "Freq": 122.70
          }
        ],
        "id": 1467,
        "Name": "CTAF/UNICOM"
      },
      {
        "Freqs": [
          {
            "id": 2109,
            "Freq": 122.40
          }
        ],
        "id": 1468,
        "Name": "RANCHO RDO"
      },
      {
        "Freqs": [
          {
            "id": 2110,
            "Freq": 124.85
          },
          {
            "id": 2111,
            "Freq": 306.30
          }
        ],
        "id": 1469,
        "Name": "SEATTLE ARTCC"
      }
    ],
    "Navaids": [
      {
        "id": 3005,
        "Name": "MONTAGUE",
        "Ident": "MOG",
        "Type": "NDB",
        "Lat": 41.72,
        "Lon": -122.48,
        "Frequency": 404.00,
        "Channel": -1,
        "Tacan_DME_Mode": "",
        "Course": 355.00,
        "Distance": 14.80
      },
      {
        "id": 3006,
        "Name": "FORT JONES",
        "Ident": "FJS",
        "Type": "VOR_DME",
        "Lat": 41.44,
        "Lon": -122.80,
        "Frequency": 109.60,
        "Channel": 33,
        "Tacan_DME_Mode": "X",
        "Course": 263.00,
        "Distance": 16.00
      },
      {
        "id": 3007,
        "Name": "KLAMATH FALLS",
        "Ident": "LMT",
        "Type": "VORTAC",
        "Lat": 42.15,
        "Lon": -121.72,
        "Frequency": 115.90,
        "Channel": 106,
        "Tacan_DME_Mode": "X",
        "Course": 39.00,
        "Distance": 51.90
      },
      {
        "id": 3008,
        "Name": "MEDFORD",
        "Ident": "MEF",
        "Type": "NDB",
        "Lat": 42.39,
        "Lon": -122.87,
        "Frequency": 356.00,
        "Channel": -1,
        "Tacan_DME_Mode": "",
        "Course": 341.00,
        "Distance": 57.80
      },
      {
        "id": 3009,
        "Name": "REDDING",
        "Ident": "RDD",
        "Type": "VOR_DME",
        "Lat": 40.50,
        "Lon": -122.29,
        "Frequency": 108.40,
        "Channel": 21,
        "Tacan_DME_Mode": "X",
        "Course": 173.00,
        "Distance": 59.00
      },
      {
        "id": 3010,
        "Name": "PUMIE",
        "Ident": "MF",
        "Type": "NDB",
        "Lat": 42.45,
        "Lon": -122.91,
        "Frequency": 373.00,
        "Channel": -1,
        "Tacan_DME_Mode": "",
        "Course": 341.00,
        "Distance": 61.70
      },
      {
        "id": 3011,
        "Name": "ROGUE VALLEY",
        "Ident": "OED",
        "Type": "VORTAC",
        "Lat": 42.47,
        "Lon": -122.91,
        "Frequency": 113.60,
        "Channel": 83,
        "Tacan_DME_Mode": "X",
        "Course": 341.00,
        "Distance": 63.30
      },
      {
        "id": 3012,
        "Name": "ABETA",
        "Ident": "CV",
        "Type": "NDB",
        "Lat": 40.96,
        "Lon": -124.09,
        "Frequency": 233.00,
        "Channel": -1,
        "Tacan_DME_Mode": "",
        "Course": 248.00,
        "Distance": 80.60
      },
      {
        "id": 3013,
        "Name": "ARCATA",
        "Ident": "ACV",
        "Type": "VOR_DME",
        "Lat": 40.98,
        "Lon": -124.10,
        "Frequency": 110.20,
        "Channel": 39,
        "Tacan_DME_Mode": "X",
        "Course": 249.00,
        "Distance": 80.60
      },
      {
        "id": 3014,
        "Name": "CRESCENT CITY",
        "Ident": "CEC",
        "Type": "VORTAC",
        "Lat": 41.77,
        "Lon": -124.24,
        "Frequency": 109.00,
        "Channel": 27,
        "Tacan_DME_Mode": "X",
        "Course": 283.00,
        "Distance": 82.30
      }
    ],
    "Runways": [
      {
        "id": 473,
        "lowID": "14",
        "highID": "32",
        "Length": 5000.00,
        "Width": 60.00,
        "SurfaceType": "ASP",
        "RunwayCondition": "GE",
        "MagHdgHi": 322.90,
        "MagHdgLow": 142.90,
        "TrueHdgHi": 337.90,
        "TrueHdgLow": 157.90,
        "Coord_Lat_Hi": 41.48,
        "Coord_Lat_Lo": 0.00,
        "Coord_Lon_Hi": -122.45,
        "Coord_Lon_Lo": -122.45,
        "Elev_Hi": 2943.00,
        "Elev_Low": 2907.00,
        "Slope_Hi": 0.70,
        "Slope_Low": 0.70,
        "TDZE_Hi": 2943.00,
        "TDZE_Low": 2934.00,
        "Overrun_Hi_Length": 0.00,
        "Overrun_Low_Length": 0.00,
        "Overrun_Hi_Type": "AM2",
        "Overrun_Low_Type": "AM2"
      }
    ],
    "id": 349,
    "ICAO": "",
    "FAA": "O46",
    "Country": "United States",
    "Name": "WEED",
    "State": "California",
    "Elevation": 2942.70,
    "Lat": 41.48,
    "Lon": -122.45,
    "MGRS": "10TEL4554092277",
    "Time_Conversion": ""
  },
  {
    "Communications": [
      {
        "Freqs": [],
        "id": 1470,
        "Name": "ASOS"
      },
      {
        "Freqs": [
          {
            "id": 2112,
            "Freq": 124.10
          }
        ],
        "id": 1471,
        "Name": "ATIS"
      },
      {
        "Freqs": [
          {
            "id": 2113,
            "Freq": 119.80
          }
        ],
        "id": 1472,
        "Name": "CTAF"
      },
      {
        "Freqs": [
          {
            "id": 2114,
            "Freq": 121.70
          }
        ],
        "id": 1473,
        "Name": "GND"
      },
      {
        "Freqs": [
          {
            "id": 2115,
            "Freq": 132.20
          },
          {
            "id": 2116,
            "Freq": 350.30
          }
        ],
        "id": 1474,
        "Name": "OAKLAND CNTR"
      },
      {
        "Freqs": [
          {
            "id": 2117,
            "Freq": 108.40
          },
          {
            "id": 2118,
            "Freq": 122.10
          }
        ],
        "id": 1475,
        "Name": "RANCHO MURIETA RDO"
      },
      {
        "Freqs": [
          {
            "id": 2119,
            "Freq": 119.80
          },
          {
            "id": 2120,
            "Freq": 269.25
          }
        ],
        "id": 1476,
        "Name": "TWR"
      },
      {
        "Freqs": [
          {
            "id": 2121,
            "Freq": 122.95
          }
        ],
        "id": 1477,
        "Name": "UNICOM"
      }
    ],
    "Navaids": [
      {
        "id": 3015,
        "Name": "REDDING",
        "Ident": "RDD",
        "Type": "VOR_DME",
        "Lat": 40.50,
        "Lon": -122.29,
        "Frequency": 108.40,
        "Channel": 21,
        "Tacan_DME_Mode": "X",
        "Course": 164.00,
        "Distance": 0.30
      },
      {
        "id": 3016,
        "Name": "RED BLUFF",
        "Ident": "RBL",
        "Type": "VORTAC",
        "Lat": 40.09,
        "Lon": -122.23,
        "Frequency": 115.70,
        "Channel": 104,
        "Tacan_DME_Mode": "X",
        "Course": 174.00,
        "Distance": 24.70
      },
      {
        "id": 3017,
        "Name": "CHICO",
        "Ident": "CIC",
        "Type": "VOR_DME",
        "Lat": 39.78,
        "Lon": -121.84,
        "Frequency": 109.80,
        "Channel": 35,
        "Tacan_DME_Mode": "X",
        "Course": 154.00,
        "Distance": 47.80
      },
      {
        "id": 3018,
        "Name": "FORT JONES",
        "Ident": "FJS",
        "Type": "VOR_DME",
        "Lat": 41.44,
        "Lon": -122.80,
        "Frequency": 109.60,
        "Channel": 33,
        "Tacan_DME_Mode": "X",
        "Course": 338.00,
        "Distance": 61.00
      },
      {
        "id": 3019,
        "Name": "MONTAGUE",
        "Ident": "MOG",
        "Type": "NDB",
        "Lat": 41.72,
        "Lon": -122.48,
        "Frequency": 404.00,
        "Channel": -1,
        "Tacan_DME_Mode": "",
        "Course": 353.00,
        "Distance": 73.60
      },
      {
        "id": 3020,
        "Name": "KEARN",
        "Ident": "UK",
        "Type": "NDB",
        "Lat": 39.27,
        "Lon": -123.24,
        "Frequency": 371.00,
        "Channel": -1,
        "Tacan_DME_Mode": "",
        "Course": 211.00,
        "Distance": 85.90
      },
      {
        "id": 3021,
        "Name": "HALOW",
        "Ident": "MY",
        "Type": "NDB",
        "Lat": 39.16,
        "Lon": -121.60,
        "Frequency": 222.00,
        "Channel": -1,
        "Tacan_DME_Mode": "",
        "Course": 158.00,
        "Distance": 86.30
      },
      {
        "id": 3022,
        "Name": "ABETA",
        "Ident": "CV",
        "Type": "NDB",
        "Lat": 40.96,
        "Lon": -124.09,
        "Frequency": 233.00,
        "Channel": -1,
        "Tacan_DME_Mode": "",
        "Course": 289.00,
        "Distance": 86.80
      },
      {
        "id": 3023,
        "Name": "WILLIAMS",
        "Ident": "ILA",
        "Type": "VORTAC",
        "Lat": 39.07,
        "Lon": -122.02,
        "Frequency": 114.40,
        "Channel": 91,
        "Tacan_DME_Mode": "X",
        "Course": 172.00,
        "Distance": 87.10
      },
      {
        "id": 3024,
        "Name": "ARCATA",
        "Ident": "ACV",
        "Type": "VOR_DME",
        "Lat": 40.98,
        "Lon": -124.10,
        "Frequency": 110.20,
        "Channel": 39,
        "Tacan_DME_Mode": "X",
        "Course": 289.00,
        "Distance": 87.50
      }
    ],
    "Runways": [
      {
        "id": 474,
        "lowID": "16",
        "highID": "34",
        "Length": 7003.00,
        "Width": 150.00,
        "SurfaceType": "ASP",
        "RunwayCondition": "G",
        "MagHdgHi": 345.90,
        "MagHdgLow": 165.90,
        "TrueHdgHi": 0.10,
        "TrueHdgLow": 180.10,
        "Coord_Lat_Hi": 40.52,
        "Coord_Lat_Lo": 0.00,
        "Coord_Lon_Hi": -122.29,
        "Coord_Lon_Lo": -122.29,
        "Elev_Hi": 490.00,
        "Elev_Low": 505.00,
        "Slope_Hi": 0.20,
        "Slope_Low": 0.20,
        "TDZE_Hi": 499.00,
        "TDZE_Low": 505.00,
        "Overrun_Hi_Length": 0.00,
        "Overrun_Low_Length": 0.00,
        "Overrun_Hi_Type": "AM2",
        "Overrun_Low_Type": "AM2"
      },
      {
        "id": 475,
        "lowID": "12",
        "highID": "30",
        "Length": 5067.00,
        "Width": 150.00,
        "SurfaceType": "ASP",
        "RunwayCondition": "G",
        "MagHdgHi": 305.90,
        "MagHdgLow": 125.90,
        "TrueHdgHi": 320.10,
        "TrueHdgLow": 140.10,
        "Coord_Lat_Hi": 40.51,
        "Coord_Lat_Lo": 0.00,
        "Coord_Lon_Hi": -122.28,
        "Coord_Lon_Lo": -122.29,
        "Elev_Hi": 492.00,
        "Elev_Low": 500.00,
        "Slope_Hi": 0.20,
        "Slope_Low": 0.20,
        "TDZE_Hi": 497.00,
        "TDZE_Low": 500.00,
        "Overrun_Hi_Length": 0.00,
        "Overrun_Low_Length": 0.00,
        "Overrun_Hi_Type": "AM2",
        "Overrun_Low_Type": "AM2"
      }
    ],
    "id": 350,
    "ICAO": "KRDD",
    "FAA": "RDD",
    "Country": "United States",
    "Name": "REDDING MUNI",
    "State": "California",
    "Elevation": 504.70,
    "Lat": 40.50,
    "Lon": -122.29,
    "MGRS": "10TEK5986684490",
    "Time_Conversion": "UTC-8(-7DT)"
  },
  {
    "Communications": [
      {
        "Freqs": [
          {
            "id": 2122,
            "Freq": 133.80
          }
        ],
        "id": 1478,
        "Name": "AWOS 3"
      },
      {
        "Freqs": [
          {
            "id": 2123,
            "Freq": 122.90
          }
        ],
        "id": 1479,
        "Name": "CTAF"
      },
      {
        "Freqs": [
          {
            "id": 2124,
            "Freq": 122.30
          }
        ],
        "id": 1480,
        "Name": "OAKLAND RDO"
      },
      {
        "Freqs": [
          {
            "id": 2125,
            "Freq": 124.85
          },
          {
            "id": 2126,
            "Freq": 306.30
          }
        ],
        "id": 1481,
        "Name": "SEATTLE CNTR"
      }
    ],
    "Navaids": [
      {
        "id": 3025,
        "Name": "FORTUNA",
        "Ident": "FOT",
        "Type": "VORTAC",
        "Lat": 40.67,
        "Lon": -124.23,
        "Frequency": 114.00,
        "Channel": 87,
        "Tacan_DME_Mode": "X",
        "Course": 327.00,
        "Distance": 8.40
      },
      {
        "id": 3026,
        "Name": "ABETA",
        "Ident": "CV",
        "Type": "NDB",
        "Lat": 40.96,
        "Lon": -124.09,
        "Frequency": 233.00,
        "Channel": -1,
        "Tacan_DME_Mode": "",
        "Course": 4.00,
        "Distance": 24.70
      },
      {
        "id": 3027,
        "Name": "ARCATA",
        "Ident": "ACV",
        "Type": "VOR_DME",
        "Lat": 40.98,
        "Lon": -124.10,
        "Frequency": 110.20,
        "Channel": 39,
        "Tacan_DME_Mode": "X",
        "Course": 2.00,
        "Distance": 25.70
      },
      {
        "id": 3028,
        "Name": "CRESCENT CITY",
        "Ident": "CEC",
        "Type": "VORTAC",
        "Lat": 41.77,
        "Lon": -124.24,
        "Frequency": 109.00,
        "Channel": 27,
        "Tacan_DME_Mode": "X",
        "Course": 356.00,
        "Distance": 73.70
      },
      {
        "id": 3029,
        "Name": "FORT JONES",
        "Ident": "FJS",
        "Type": "VOR_DME",
        "Lat": 41.44,
        "Lon": -122.80,
        "Frequency": 109.60,
        "Channel": 33,
        "Tacan_DME_Mode": "X",
        "Course": 48.00,
        "Distance": 80.70
      },
      {
        "id": 3030,
        "Name": "REDDING",
        "Ident": "RDD",
        "Type": "VOR_DME",
        "Lat": 40.50,
        "Lon": -122.29,
        "Frequency": 108.40,
        "Channel": 21,
        "Tacan_DME_Mode": "X",
        "Course": 91.00,
        "Distance": 84.30
      },
      {
        "id": 3031,
        "Name": "KEARN",
        "Ident": "UK",
        "Type": "NDB",
        "Lat": 39.27,
        "Lon": -123.24,
        "Frequency": 371.00,
        "Channel": -1,
        "Tacan_DME_Mode": "",
        "Course": 151.00,
        "Distance": 87.00
      },
      {
        "id": 3032,
        "Name": "RED BLUFF",
        "Ident": "RBL",
        "Type": "VORTAC",
        "Lat": 40.09,
        "Lon": -122.23,
        "Frequency": 115.70,
        "Channel": 104,
        "Tacan_DME_Mode": "X",
        "Course": 107.00,
        "Distance": 91.20
      },
      {
        "id": 3033,
        "Name": "MENDOCINO",
        "Ident": "ENI",
        "Type": "VORTAC",
        "Lat": 39.05,
        "Lon": -123.27,
        "Frequency": 112.30,
        "Channel": 70,
        "Tacan_DME_Mode": "X",
        "Course": 156.00,
        "Distance": 98.30
      },
      {
        "id": 3034,
        "Name": "MONTAGUE",
        "Ident": "MOG",
        "Type": "NDB",
        "Lat": 41.72,
        "Lon": -122.48,
        "Frequency": 404.00,
        "Channel": -1,
        "Tacan_DME_Mode": "",
        "Course": 46.00,
        "Distance": 102.70
      }
    ],
    "Runways": [
      {
        "id": 476,
        "lowID": "11",
        "highID": "29",
        "Length": 4005.00,
        "Width": 100.00,
        "SurfaceType": "ASP",
        "RunwayCondition": "G",
        "MagHdgHi": 292.40,
        "MagHdgLow": 112.40,
        "TrueHdgHi": 307.50,
        "TrueHdgLow": 127.50,
        "Coord_Lat_Hi": 40.55,
        "Coord_Lat_Lo": 0.00,
        "Coord_Lon_Hi": -124.12,
        "Coord_Lon_Lo": -124.13,
        "Elev_Hi": 393.00,
        "Elev_Low": 340.00,
        "Slope_Hi": 1.30,
        "Slope_Low": 1.30,
        "TDZE_Hi": 393.00,
        "TDZE_Low": 382.00,
        "Overrun_Hi_Length": 0.00,
        "Overrun_Low_Length": 0.00,
        "Overrun_Hi_Type": "AM2",
        "Overrun_Low_Type": "AM2"
      }
    ],
    "id": 351,
    "ICAO": "",
    "FAA": "FOT",
    "Country": "United States",
    "Name": "ROHNERVILLE",
    "State": "California",
    "Elevation": 392.70,
    "Lat": 40.55,
    "Lon": -124.13,
    "MGRS": "10TDK0410189859",
    "Time_Conversion": "UTC-8(-7DT)"
  },
  {
    "Communications": [
      {
        "Freqs": [
          {
            "id": 2127,
            "Freq": 121.12
          }
        ],
        "id": 1482,
        "Name": "ASOS"
      },
      {
        "Freqs": [
          {
            "id": 2128,
            "Freq": 123.00
          }
        ],
        "id": 1483,
        "Name": "CTAF/UNICOM"
      },
      {
        "Freqs": [
          {
            "id": 2129,
            "Freq": 122.40
          },
          {
            "id": 2130,
            "Freq": 255.40
          }
        ],
        "id": 1484,
        "Name": "RANCHO RDO"
      },
      {
        "Freqs": [
          {
            "id": 2131,
            "Freq": 124.85
          },
          {
            "id": 2132,
            "Freq": 306.30
          }
        ],
        "id": 1485,
        "Name": "SEATTLE CNTR"
      }
    ],
    "Navaids": [
      {
        "id": 3035,
        "Name": "MONTAGUE",
        "Ident": "MOG",
        "Type": "NDB",
        "Lat": 41.72,
        "Lon": -122.48,
        "Frequency": 404.00,
        "Channel": -1,
        "Tacan_DME_Mode": "",
        "Course": 191.00,
        "Distance": 3.30
      },
      {
        "id": 3036,
        "Name": "FORT JONES",
        "Ident": "FJS",
        "Type": "VOR_DME",
        "Lat": 41.44,
        "Lon": -122.80,
        "Frequency": 109.60,
        "Channel": 33,
        "Tacan_DME_Mode": "X",
        "Course": 218.00,
        "Distance": 25.10
      },
      {
        "id": 3037,
        "Name": "KLAMATH FALLS",
        "Ident": "LMT",
        "Type": "VORTAC",
        "Lat": 42.15,
        "Lon": -121.72,
        "Frequency": 115.90,
        "Channel": 106,
        "Tacan_DME_Mode": "X",
        "Course": 56.00,
        "Distance": 39.90
      },
      {
        "id": 3038,
        "Name": "MEDFORD",
        "Ident": "MEF",
        "Type": "NDB",
        "Lat": 42.39,
        "Lon": -122.87,
        "Frequency": 356.00,
        "Channel": -1,
        "Tacan_DME_Mode": "",
        "Course": 334.00,
        "Distance": 40.90
      },
      {
        "id": 3039,
        "Name": "PUMIE",
        "Ident": "MF",
        "Type": "NDB",
        "Lat": 42.45,
        "Lon": -122.91,
        "Frequency": 373.00,
        "Channel": -1,
        "Tacan_DME_Mode": "",
        "Course": 334.00,
        "Distance": 44.80
      },
      {
        "id": 3040,
        "Name": "ROGUE VALLEY",
        "Ident": "OED",
        "Type": "VORTAC",
        "Lat": 42.47,
        "Lon": -122.91,
        "Frequency": 113.60,
        "Channel": 83,
        "Tacan_DME_Mode": "X",
        "Course": 335.00,
        "Distance": 46.30
      },
      {
        "id": 3041,
        "Name": "REDDING",
        "Ident": "RDD",
        "Type": "VOR_DME",
        "Lat": 40.50,
        "Lon": -122.29,
        "Frequency": 108.40,
        "Channel": 21,
        "Tacan_DME_Mode": "X",
        "Course": 174.00,
        "Distance": 77.00
      },
      {
        "id": 3042,
        "Name": "CRESCENT CITY",
        "Ident": "CEC",
        "Type": "VORTAC",
        "Lat": 41.77,
        "Lon": -124.24,
        "Frequency": 109.00,
        "Channel": 27,
        "Tacan_DME_Mode": "X",
        "Course": 271.00,
        "Distance": 79.60
      },
      {
        "id": 3043,
        "Name": "ARCATA",
        "Ident": "ACV",
        "Type": "VOR_DME",
        "Lat": 40.98,
        "Lon": -124.10,
        "Frequency": 110.20,
        "Channel": 39,
        "Tacan_DME_Mode": "X",
        "Course": 238.00,
        "Distance": 88.30
      },
      {
        "id": 3044,
        "Name": "ABETA",
        "Ident": "CV",
        "Type": "NDB",
        "Lat": 40.96,
        "Lon": -124.09,
        "Frequency": 233.00,
        "Channel": -1,
        "Tacan_DME_Mode": "",
        "Course": 237.00,
        "Distance": 88.50
      }
    ],
    "Runways": [
      {
        "id": 477,
        "lowID": "17",
        "highID": "35",
        "Length": 7484.00,
        "Width": 150.00,
        "SurfaceType": "ASP",
        "RunwayCondition": "G",
        "MagHdgHi": 355.90,
        "MagHdgLow": 175.90,
        "TrueHdgHi": 11.10,
        "TrueHdgLow": 191.10,
        "Coord_Lat_Hi": 41.79,
        "Coord_Lat_Lo": 0.00,
        "Coord_Lon_Hi": -122.47,
        "Coord_Lon_Lo": -122.46,
        "Elev_Hi": 2632.00,
        "Elev_Low": 2651.00,
        "Slope_Hi": 0.30,
        "Slope_Low": 0.30,
        "TDZE_Hi": 2640.00,
        "TDZE_Low": 2651.00,
        "Overrun_Hi_Length": 685.00,
        "Overrun_Low_Length": 1000.00,
        "Overrun_Hi_Type": "ASP",
        "Overrun_Low_Type": "ASP"
      }
    ],
    "id": 352,
    "ICAO": "KSIY",
    "FAA": "SIY",
    "Country": "United States",
    "Name": "SISKIYOU CO",
    "State": "California",
    "Elevation": 2651.10,
    "Lat": 41.78,
    "Lon": -122.46,
    "MGRS": "10TEM4420025647",
    "Time_Conversion": "UTC-8(-7DT)"
  },
  {
    "Communications": [
      {
        "Freqs": [
          {
            "id": 2133,
            "Freq": 133.80
          }
        ],
        "id": 1486,
        "Name": "AWOS 3"
      },
      {
        "Freqs": [
          {
            "id": 2134,
            "Freq": 122.80
          }
        ],
        "id": 1487,
        "Name": "CTAF/UNICOM"
      },
      {
        "Freqs": [
          {
            "id": 2135,
            "Freq": 128.80
          },
          {
            "id": 2136,
            "Freq": 285.50
          }
        ],
        "id": 1488,
        "Name": "OAKLAND CNTR"
      }
    ],
    "Navaids": [
      {
        "id": 3045,
        "Name": "AMEDEE",
        "Ident": "AHC",
        "Type": "VOR_DME",
        "Lat": 40.26,
        "Lon": -120.15,
        "Frequency": 109.00,
        "Channel": 27,
        "Tacan_DME_Mode": "X",
        "Course": 108.00,
        "Distance": 20.40
      },
      {
        "id": 3046,
        "Name": "MUSTANG",
        "Ident": "FMG",
        "Type": "VORTAC",
        "Lat": 39.53,
        "Lon": -119.65,
        "Frequency": 117.90,
        "Channel": 126,
        "Tacan_DME_Mode": "X",
        "Course": 140.00,
        "Distance": 66.00
      },
      {
        "id": 3047,
        "Name": "CHICO",
        "Ident": "CIC",
        "Type": "VOR_DME",
        "Lat": 39.78,
        "Lon": -121.84,
        "Frequency": 109.80,
        "Channel": 35,
        "Tacan_DME_Mode": "X",
        "Course": 240.00,
        "Distance": 68.40
      },
      {
        "id": 3048,
        "Name": "SQUAW VALLEY",
        "Ident": "SWR",
        "Type": "VOR_DME",
        "Lat": 39.18,
        "Lon": -120.26,
        "Frequency": 113.20,
        "Channel": 79,
        "Tacan_DME_Mode": "X",
        "Course": 169.00,
        "Distance": 73.00
      },
      {
        "id": 3049,
        "Name": "RED BLUFF",
        "Ident": "RBL",
        "Type": "VORTAC",
        "Lat": 40.09,
        "Lon": -122.23,
        "Frequency": 115.70,
        "Channel": 104,
        "Tacan_DME_Mode": "X",
        "Course": 258.00,
        "Distance": 78.20
      },
      {
        "id": 3050,
        "Name": "REDDING",
        "Ident": "RDD",
        "Type": "VOR_DME",
        "Lat": 40.50,
        "Lon": -122.29,
        "Frequency": 108.40,
        "Channel": 21,
        "Tacan_DME_Mode": "X",
        "Course": 276.00,
        "Distance": 79.10
      },
      {
        "id": 3051,
        "Name": "BEALE",
        "Ident": "BAB",
        "Type": "TACAN",
        "Lat": 39.13,
        "Lon": -121.44,
        "Frequency": 0.00,
        "Channel": 23,
        "Tacan_DME_Mode": "X",
        "Course": 209.00,
        "Distance": 84.50
      },
      {
        "id": 3052,
        "Name": "HALOW",
        "Ident": "MY",
        "Type": "NDB",
        "Lat": 39.16,
        "Lon": -121.60,
        "Frequency": 222.00,
        "Channel": -1,
        "Tacan_DME_Mode": "",
        "Course": 214.00,
        "Distance": 86.80
      },
      {
        "id": 3053,
        "Name": "HAZEN",
        "Ident": "HZN",
        "Type": "VORTAC",
        "Lat": 39.51,
        "Lon": -118.99,
        "Frequency": 114.10,
        "Channel": 88,
        "Tacan_DME_Mode": "X",
        "Course": 125.00,
        "Distance": 89.10
      },
      {
        "id": 3054,
        "Name": "MARYSVILLE",
        "Ident": "MYV",
        "Type": "VOR_DME",
        "Lat": 39.09,
        "Lon": -121.57,
        "Frequency": 110.80,
        "Channel": 45,
        "Tacan_DME_Mode": "X",
        "Course": 211.00,
        "Distance": 89.50
      }
    ],
    "Runways": [
      {
        "id": 478,
        "lowID": "11",
        "highID": "29",
        "Length": 4051.00,
        "Width": 75.00,
        "SurfaceType": "ASP",
        "RunwayCondition": "G",
        "MagHdgHi": 294.60,
        "MagHdgLow": 114.60,
        "TrueHdgHi": 309.00,
        "TrueHdgLow": 129.00,
        "Coord_Lat_Hi": 40.37,
        "Coord_Lat_Lo": 0.00,
        "Coord_Lon_Hi": -120.56,
        "Coord_Lon_Lo": -120.57,
        "Elev_Hi": 4122.00,
        "Elev_Low": 4147.00,
        "Slope_Hi": 0.60,
        "Slope_Low": 0.60,
        "TDZE_Hi": 4146.00,
        "TDZE_Low": 4148.00,
        "Overrun_Hi_Length": 0.00,
        "Overrun_Low_Length": 0.00,
        "Overrun_Hi_Type": "AM2",
        "Overrun_Low_Type": "AM2"
      },
      {
        "id": 479,
        "lowID": "07",
        "highID": "25",
        "Length": 2180.00,
        "Width": 60.00,
        "SurfaceType": "GRE",
        "RunwayCondition": "F",
        "MagHdgHi": 255.10,
        "MagHdgLow": 75.10,
        "TrueHdgHi": 269.50,
        "TrueHdgLow": 89.50,
        "Coord_Lat_Hi": 40.37,
        "Coord_Lat_Lo": 0.00,
        "Coord_Lon_Hi": -120.57,
        "Coord_Lon_Lo": -120.57,
        "Elev_Hi": 4130.00,
        "Elev_Low": 4149.00,
        "Slope_Hi": 0.90,
        "Slope_Low": 0.90,
        "TDZE_Hi": 4149.00,
        "TDZE_Low": 4149.00,
        "Overrun_Hi_Length": 0.00,
        "Overrun_Low_Length": 0.00,
        "Overrun_Hi_Type": "AM2",
        "Overrun_Low_Type": "AM2"
      }
    ],
    "id": 353,
    "ICAO": "KSVE",
    "FAA": "SVE",
    "Country": "United States",
    "Name": "SUSANVILLE MUNI",
    "State": "California",
    "Elevation": 4149.10,
    "Lat": 40.37,
    "Lon": -120.57,
    "MGRS": "10TGK0606472285",
    "Time_Conversion": "UTC-8(-7DT)"
  },
  {
    "Communications": [
      {
        "Freqs": [
          {
            "id": 2137,
            "Freq": 135.60
          }
        ],
        "id": 1489,
        "Name": "AWOS 3"
      },
      {
        "Freqs": [
          {
            "id": 2138,
            "Freq": 122.70
          }
        ],
        "id": 1490,
        "Name": "CTAF/UNICOM"
      },
      {
        "Freqs": [
          {
            "id": 2139,
            "Freq": 121.25
          },
          {
            "id": 2140,
            "Freq": 327.00
          }
        ],
        "id": 1491,
        "Name": "OAKLAND CNTR"
      }
    ],
    "Navaids": [
      {
        "id": 3055,
        "Name": "EL NIDO",
        "Ident": "HYP",
        "Type": "VOR_DME",
        "Lat": 37.21,
        "Lon": -120.40,
        "Frequency": 114.20,
        "Channel": 89,
        "Tacan_DME_Mode": "X",
        "Course": 225.00,
        "Distance": 24.50
      },
      {
        "id": 3056,
        "Name": "FRIANT",
        "Ident": "FRA",
        "Type": "VORTAC",
        "Lat": 37.10,
        "Lon": -119.59,
        "Frequency": 115.60,
        "Channel": 103,
        "Tacan_DME_Mode": "X",
        "Course": 139.00,
        "Distance": 32.30
      },
      {
        "id": 3057,
        "Name": "CLOVIS",
        "Ident": "CZQ",
        "Type": "VORTAC",
        "Lat": 36.88,
        "Lon": -119.81,
        "Frequency": 112.90,
        "Channel": 76,
        "Tacan_DME_Mode": "X",
        "Course": 164.00,
        "Distance": 39.10
      },
      {
        "id": 3058,
        "Name": "MODESTO",
        "Ident": "MOD",
        "Type": "VOR_DME",
        "Lat": 37.62,
        "Lon": -120.95,
        "Frequency": 114.60,
        "Channel": 93,
        "Tacan_DME_Mode": "X",
        "Course": 279.00,
        "Distance": 44.40
      },
      {
        "id": 3059,
        "Name": "LINDEN",
        "Ident": "LIN",
        "Type": "VOR_DME",
        "Lat": 38.07,
        "Lon": -121.00,
        "Frequency": 114.80,
        "Channel": 95,
        "Tacan_DME_Mode": "X",
        "Course": 307.00,
        "Distance": 57.00
      },
      {
        "id": 3060,
        "Name": "PANOCHE",
        "Ident": "PXN",
        "Type": "VORTAC",
        "Lat": 36.71,
        "Lon": -120.77,
        "Frequency": 112.60,
        "Channel": 73,
        "Tacan_DME_Mode": "X",
        "Course": 217.00,
        "Distance": 59.40
      },
      {
        "id": 3061,
        "Name": "TRACY",
        "Ident": "TCY",
        "Type": "NDB",
        "Lat": 37.69,
        "Lon": -121.44,
        "Frequency": 203.00,
        "Channel": -1,
        "Tacan_DME_Mode": "",
        "Course": 280.00,
        "Distance": 67.90
      },
      {
        "id": 3062,
        "Name": "LEMOORE",
        "Ident": "NLC",
        "Type": "TACAN",
        "Lat": 36.34,
        "Lon": -119.96,
        "Frequency": 0.00,
        "Channel": 80,
        "Tacan_DME_Mode": "X",
        "Course": 177.00,
        "Distance": 70.00
      },
      {
        "id": 3063,
        "Name": "VISALIA",
        "Ident": "VIS",
        "Type": "VOR_DME",
        "Lat": 36.36,
        "Lon": -119.48,
        "Frequency": 109.40,
        "Channel": 31,
        "Tacan_DME_Mode": "X",
        "Course": 158.00,
        "Distance": 73.60
      },
      {
        "id": 3064,
        "Name": "BISHOP",
        "Ident": "BIH",
        "Type": "VOR_DME",
        "Lat": 37.37,
        "Lon": -118.36,
        "Frequency": 109.60,
        "Channel": 33,
        "Tacan_DME_Mode": "X",
        "Course": 95.00,
        "Distance": 80.30
      }
    ],
    "Runways": [
      {
        "id": 480,
        "lowID": "08",
        "highID": "26",
        "Length": 3306.00,
        "Width": 60.00,
        "SurfaceType": "ASP",
        "RunwayCondition": "G",
        "MagHdgHi": 264.70,
        "MagHdgLow": 84.70,
        "TrueHdgHi": 279.70,
        "TrueHdgLow": 99.70,
        "Coord_Lat_Hi": 37.51,
        "Coord_Lat_Lo": 0.00,
        "Coord_Lon_Hi": -120.03,
        "Coord_Lon_Lo": -120.04,
        "Elev_Hi": 2223.00,
        "Elev_Low": 2254.00,
        "Slope_Hi": 0.90,
        "Slope_Low": 0.90,
        "TDZE_Hi": 2251.00,
        "TDZE_Low": 2254.00,
        "Overrun_Hi_Length": 0.00,
        "Overrun_Low_Length": 0.00,
        "Overrun_Hi_Type": "AM2",
        "Overrun_Low_Type": "AM2"
      }
    ],
    "id": 354,
    "ICAO": "",
    "FAA": "MPI",
    "Country": "United States",
    "Name": "MARIPOSA YOSEMITE",
    "State": "California",
    "Elevation": 2254.40,
    "Lat": 37.51,
    "Lon": -120.03,
    "MGRS": "10SGG6166955665",
    "Time_Conversion": ""
  },
  {
    "Communications": [
      {
        "Freqs": [
          {
            "id": 2141,
            "Freq": 121.12
          }
        ],
        "id": 1492,
        "Name": "AWOS THREE"
      },
      {
        "Freqs": [],
        "id": 1493,
        "Name": "CLNC DEL"
      },
      {
        "Freqs": [
          {
            "id": 2142,
            "Freq": 123.07
          }
        ],
        "id": 1494,
        "Name": "CTAF/UNICOM"
      },
      {
        "Freqs": [
          {
            "id": 2143,
            "Freq": 125.10
          },
          {
            "id": 2144,
            "Freq": 127.40
          },
          {
            "id": 2145,
            "Freq": 317.50
          },
          {
            "id": 2146,
            "Freq": 363.20
          }
        ],
        "id": 1495,
        "Name": "NORCAL APP/DEP"
      }
    ],
    "Navaids": [
      {
        "id": 3065,
        "Name": "LINDEN",
        "Ident": "LIN",
        "Type": "VOR_DME",
        "Lat": 38.07,
        "Lon": -121.00,
        "Frequency": 114.80,
        "Channel": 95,
        "Tacan_DME_Mode": "X",
        "Course": 209.00,
        "Distance": 20.70
      },
      {
        "id": 3066,
        "Name": "HANGTOWN",
        "Ident": "HNW",
        "Type": "VOR_DME",
        "Lat": 38.72,
        "Lon": -120.74,
        "Frequency": 115.50,
        "Channel": 102,
        "Tacan_DME_Mode": "X",
        "Course": 6.00,
        "Distance": 21.00
      },
      {
        "id": 3067,
        "Name": "MC CLELLAN",
        "Ident": "MCC",
        "Type": "VOR_DME",
        "Lat": 38.66,
        "Lon": -121.40,
        "Frequency": 109.20,
        "Channel": 29,
        "Tacan_DME_Mode": "X",
        "Course": 301.00,
        "Distance": 33.60
      },
      {
        "id": 3068,
        "Name": "SACRAMENTO",
        "Ident": "SAC",
        "Type": "VORTAC",
        "Lat": 38.44,
        "Lon": -121.55,
        "Frequency": 115.20,
        "Channel": 99,
        "Tacan_DME_Mode": "X",
        "Course": 277.00,
        "Distance": 36.00
      },
      {
        "id": 3069,
        "Name": "MODESTO",
        "Ident": "MOD",
        "Type": "VOR_DME",
        "Lat": 37.62,
        "Lon": -120.95,
        "Frequency": 114.60,
        "Channel": 93,
        "Tacan_DME_Mode": "X",
        "Course": 190.00,
        "Distance": 45.60
      },
      {
        "id": 3070,
        "Name": "TRACY",
        "Ident": "TCY",
        "Type": "NDB",
        "Lat": 37.69,
        "Lon": -121.44,
        "Frequency": 203.00,
        "Channel": -1,
        "Tacan_DME_Mode": "",
        "Course": 217.00,
        "Distance": 51.30
      },
      {
        "id": 3071,
        "Name": "SQUAW VALLEY",
        "Ident": "SWR",
        "Type": "VOR_DME",
        "Lat": 39.18,
        "Lon": -120.26,
        "Frequency": 113.20,
        "Channel": 79,
        "Tacan_DME_Mode": "X",
        "Course": 27.00,
        "Distance": 54.10
      },
      {
        "id": 3072,
        "Name": "TRAVIS",
        "Ident": "SUU",
        "Type": "TACAN",
        "Lat": 38.24,
        "Lon": -121.94,
        "Frequency": 0.00,
        "Channel": 113,
        "Tacan_DME_Mode": "X",
        "Course": 262.00,
        "Distance": 54.90
      },
      {
        "id": 3073,
        "Name": "BEALE",
        "Ident": "BAB",
        "Type": "TACAN",
        "Lat": 39.13,
        "Lon": -121.44,
        "Frequency": 0.00,
        "Channel": 23,
        "Tacan_DME_Mode": "X",
        "Course": 326.00,
        "Distance": 54.60
      },
      {
        "id": 3074,
        "Name": "MARYSVILLE",
        "Ident": "MYV",
        "Type": "VOR_DME",
        "Lat": 39.09,
        "Lon": -121.57,
        "Frequency": 110.80,
        "Channel": 45,
        "Tacan_DME_Mode": "X",
        "Course": 320.00,
        "Distance": 56.70
      }
    ],
    "Runways": [
      {
        "id": 481,
        "lowID": "01",
        "highID": "19",
        "Length": 3401.00,
        "Width": 60.00,
        "SurfaceType": "ASP",
        "RunwayCondition": "G",
        "MagHdgHi": 188.00,
        "MagHdgLow": 8.00,
        "TrueHdgHi": 202.00,
        "TrueHdgLow": 22.00,
        "Coord_Lat_Hi": 38.37,
        "Coord_Lat_Lo": 0.00,
        "Coord_Lon_Hi": -120.79,
        "Coord_Lon_Lo": -120.79,
        "Elev_Hi": 1681.00,
        "Elev_Low": 1688.00,
        "Slope_Hi": 0.20,
        "Slope_Low": 0.20,
        "TDZE_Hi": 1685.00,
        "TDZE_Low": 1690.00,
        "Overrun_Hi_Length": 0.00,
        "Overrun_Low_Length": 0.00,
        "Overrun_Hi_Type": "AM2",
        "Overrun_Low_Type": "AM2"
      }
    ],
    "id": 355,
    "ICAO": "",
    "FAA": "JAQ",
    "Country": "United States",
    "Name": "WESTOVER FLD AMADOR CO",
    "State": "California",
    "Elevation": 1694.00,
    "Lat": 38.37,
    "Lon": -120.79,
    "MGRS": "10SFH9270549927",
    "Time_Conversion": ""
  },
  {
    "Communications": [
      {
        "Freqs": [
          {
            "id": 2147,
            "Freq": 119.02
          }
        ],
        "id": 1496,
        "Name": "ASOS"
      },
      {
        "Freqs": [
          {
            "id": 2148,
            "Freq": 123.00
          }
        ],
        "id": 1497,
        "Name": "CTAF/UNICOM"
      },
      {
        "Freqs": [
          {
            "id": 2149,
            "Freq": 125.75
          },
          {
            "id": 2150,
            "Freq": 284.65
          }
        ],
        "id": 1498,
        "Name": "OAKLAND CNTR"
      },
      {
        "Freqs": [
          {
            "id": 2151,
            "Freq": 122.60
          }
        ],
        "id": 1499,
        "Name": "RIVERSIDE RDO"
      }
    ],
    "Navaids": [
      {
        "id": 3075,
        "Name": "BISHOP",
        "Ident": "BIH",
        "Type": "VOR_DME",
        "Lat": 37.37,
        "Lon": -118.36,
        "Frequency": 109.60,
        "Channel": 33,
        "Tacan_DME_Mode": "X",
        "Course": 329.00,
        "Distance": 0.30
      },
      {
        "id": 3076,
        "Name": "COALDALE",
        "Ident": "OAL",
        "Type": "VORTAC",
        "Lat": 38.00,
        "Lon": -117.77,
        "Frequency": 117.70,
        "Channel": 124,
        "Tacan_DME_Mode": "X",
        "Course": 37.00,
        "Distance": 47.20
      },
      {
        "id": 3077,
        "Name": "FRIANT",
        "Ident": "FRA",
        "Type": "VORTAC",
        "Lat": 37.10,
        "Lon": -119.59,
        "Frequency": 115.60,
        "Channel": 103,
        "Tacan_DME_Mode": "X",
        "Course": 255.00,
        "Distance": 61.20
      },
      {
        "id": 3078,
        "Name": "MINA",
        "Ident": "MVA",
        "Type": "VORTAC",
        "Lat": 38.56,
        "Lon": -118.03,
        "Frequency": 115.10,
        "Channel": 98,
        "Tacan_DME_Mode": "X",
        "Course": 12.00,
        "Distance": 73.20
      },
      {
        "id": 3079,
        "Name": "TONOPAH",
        "Ident": "TPH",
        "Type": "VORTAC",
        "Lat": 38.03,
        "Lon": -117.03,
        "Frequency": 117.20,
        "Channel": 119,
        "Tacan_DME_Mode": "X",
        "Course": 58.00,
        "Distance": 74.60
      },
      {
        "id": 3080,
        "Name": "CLOVIS",
        "Ident": "CZQ",
        "Type": "VORTAC",
        "Lat": 36.88,
        "Lon": -119.81,
        "Frequency": 112.90,
        "Channel": 76,
        "Tacan_DME_Mode": "X",
        "Course": 248.00,
        "Distance": 75.60
      },
      {
        "id": 3081,
        "Name": "SILVERBOW",
        "Ident": "TQQ",
        "Type": "VORTAC",
        "Lat": 37.79,
        "Lon": -116.77,
        "Frequency": 113.00,
        "Channel": 77,
        "Tacan_DME_Mode": "X",
        "Course": 71.00,
        "Distance": 79.60
      },
      {
        "id": 3082,
        "Name": "VISALIA",
        "Ident": "VIS",
        "Type": "VOR_DME",
        "Lat": 36.36,
        "Lon": -119.48,
        "Frequency": 109.40,
        "Channel": 31,
        "Tacan_DME_Mode": "X",
        "Course": 222.00,
        "Distance": 80.80
      },
      {
        "id": 3083,
        "Name": "BEATTY",
        "Ident": "BTY",
        "Type": "VORTAC",
        "Lat": 36.80,
        "Lon": -116.74,
        "Frequency": 114.70,
        "Channel": 94,
        "Tacan_DME_Mode": "X",
        "Course": 113.00,
        "Distance": 84.80
      },
      {
        "id": 3084,
        "Name": "TULE",
        "Ident": "TTE",
        "Type": "VOR_DME",
        "Lat": 35.91,
        "Lon": -119.02,
        "Frequency": 109.20,
        "Channel": 29,
        "Tacan_DME_Mode": "X",
        "Course": 200.00,
        "Distance": 93.10
      }
    ],
    "Runways": [
      {
        "id": 482,
        "lowID": "12",
        "highID": "30",
        "Length": 7498.00,
        "Width": 100.00,
        "SurfaceType": "ASP",
        "RunwayCondition": "G",
        "MagHdgHi": 302.00,
        "MagHdgLow": 122.00,
        "TrueHdgHi": 316.00,
        "TrueHdgLow": 136.00,
        "Coord_Lat_Hi": 37.38,
        "Coord_Lat_Lo": 0.00,
        "Coord_Lon_Hi": -118.35,
        "Coord_Lon_Lo": -118.37,
        "Elev_Hi": 4100.00,
        "Elev_Low": 4123.00,
        "Slope_Hi": 0.30,
        "Slope_Low": 0.30,
        "TDZE_Hi": 4111.00,
        "TDZE_Low": 4123.00,
        "Overrun_Hi_Length": 0.00,
        "Overrun_Low_Length": 0.00,
        "Overrun_Hi_Type": "AM2",
        "Overrun_Low_Type": "AM2"
      },
      {
        "id": 483,
        "lowID": "17",
        "highID": "35",
        "Length": 5600.00,
        "Width": 100.00,
        "SurfaceType": "ASP",
        "RunwayCondition": "F",
        "MagHdgHi": 347.00,
        "MagHdgLow": 167.00,
        "TrueHdgHi": 360.00,
        "TrueHdgLow": 180.00,
        "Coord_Lat_Hi": 37.38,
        "Coord_Lat_Lo": 0.00,
        "Coord_Lon_Hi": -118.36,
        "Coord_Lon_Lo": -118.36,
        "Elev_Hi": 4105.00,
        "Elev_Low": 4113.00,
        "Slope_Hi": 0.10,
        "Slope_Low": 0.10,
        "TDZE_Hi": 4110.00,
        "TDZE_Low": 4113.00,
        "Overrun_Hi_Length": 0.00,
        "Overrun_Low_Length": 0.00,
        "Overrun_Hi_Type": "AM2",
        "Overrun_Low_Type": "AM2"
      },
      {
        "id": 484,
        "lowID": "08",
        "highID": "26",
        "Length": 5567.00,
        "Width": 100.00,
        "SurfaceType": "ASP",
        "RunwayCondition": "F",
        "MagHdgHi": 257.00,
        "MagHdgLow": 77.00,
        "TrueHdgHi": 270.00,
        "TrueHdgLow": 90.00,
        "Coord_Lat_Hi": 37.37,
        "Coord_Lat_Lo": 0.00,
        "Coord_Lon_Hi": -118.35,
        "Coord_Lon_Lo": -118.37,
        "Elev_Hi": 4100.00,
        "Elev_Low": 4124.00,
        "Slope_Hi": 0.40,
        "Slope_Low": 0.40,
        "TDZE_Hi": 4115.00,
        "TDZE_Low": 4124.00,
        "Overrun_Hi_Length": 0.00,
        "Overrun_Low_Length": 0.00,
        "Overrun_Hi_Type": "AM2",
        "Overrun_Low_Type": "AM2"
      }
    ],
    "id": 356,
    "ICAO": "KBIH",
    "FAA": "BIH",
    "Country": "United States",
    "Name": "BISHOP",
    "State": "California",
    "Elevation": 4124.30,
    "Lat": 37.37,
    "Lon": -118.36,
    "MGRS": "11SLB7926437136",
    "Time_Conversion": "UTC-8(-7DT)"
  },
  {
    "Communications": [
      {
        "Freqs": [
          {
            "id": 2152,
            "Freq": 124.47
          }
        ],
        "id": 1500,
        "Name": "ATIS"
      },
      {
        "Freqs": [
          {
            "id": 2153,
            "Freq": 124.47
          }
        ],
        "id": 1501,
        "Name": "AWOS 3"
      },
      {
        "Freqs": [],
        "id": 1502,
        "Name": "CLNC DEL"
      },
      {
        "Freqs": [
          {
            "id": 2154,
            "Freq": 118.17
          }
        ],
        "id": 1503,
        "Name": "CTAF"
      },
      {
        "Freqs": [
          {
            "id": 2155,
            "Freq": 133.57
          }
        ],
        "id": 1504,
        "Name": "GND"
      },
      {
        "Freqs": [
          {
            "id": 2156,
            "Freq": 120.95
          },
          {
            "id": 2157,
            "Freq": 269.45
          }
        ],
        "id": 1505,
        "Name": "NORCAL APP/DEP"
      },
      {
        "Freqs": [
          {
            "id": 2158,
            "Freq": 118.17
          },
          {
            "id": 2159,
            "Freq": 235.77
          }
        ],
        "id": 1506,
        "Name": "TWR"
      },
      {
        "Freqs": [
          {
            "id": 2160,
            "Freq": 122.95
          }
        ],
        "id": 1507,
        "Name": "UNICOM"
      }
    ],
    "Navaids": [
      {
        "id": 3085,
        "Name": "EL NIDO",
        "Ident": "HYP",
        "Type": "VOR_DME",
        "Lat": 37.21,
        "Lon": -120.40,
        "Frequency": 114.20,
        "Channel": 89,
        "Tacan_DME_Mode": "X",
        "Course": 140.00,
        "Distance": 12.60
      },
      {
        "id": 3086,
        "Name": "MODESTO",
        "Ident": "MOD",
        "Type": "VOR_DME",
        "Lat": 37.62,
        "Lon": -120.95,
        "Frequency": 114.60,
        "Channel": 93,
        "Tacan_DME_Mode": "X",
        "Course": 309.00,
        "Distance": 23.80
      },
      {
        "id": 3087,
        "Name": "PANOCHE",
        "Ident": "PXN",
        "Type": "VORTAC",
        "Lat": 36.71,
        "Lon": -120.77,
        "Frequency": 112.60,
        "Channel": 73,
        "Tacan_DME_Mode": "X",
        "Course": 194.00,
        "Distance": 41.10
      },
      {
        "id": 3088,
        "Name": "TRACY",
        "Ident": "TCY",
        "Type": "NDB",
        "Lat": 37.69,
        "Lon": -121.44,
        "Frequency": 203.00,
        "Channel": -1,
        "Tacan_DME_Mode": "",
        "Course": 294.00,
        "Distance": 45.80
      },
      {
        "id": 3089,
        "Name": "LINDEN",
        "Ident": "LIN",
        "Type": "VOR_DME",
        "Lat": 38.07,
        "Lon": -121.00,
        "Frequency": 114.80,
        "Channel": 95,
        "Tacan_DME_Mode": "X",
        "Course": 334.00,
        "Distance": 46.50
      },
      {
        "id": 3090,
        "Name": "CLOVIS",
        "Ident": "CZQ",
        "Type": "VORTAC",
        "Lat": 36.88,
        "Lon": -119.81,
        "Frequency": 112.90,
        "Channel": 76,
        "Tacan_DME_Mode": "X",
        "Course": 129.00,
        "Distance": 46.80
      },
      {
        "id": 3091,
        "Name": "FRIANT",
        "Ident": "FRA",
        "Type": "VORTAC",
        "Lat": 37.10,
        "Lon": -119.59,
        "Frequency": 115.60,
        "Channel": 103,
        "Tacan_DME_Mode": "X",
        "Course": 109.00,
        "Distance": 49.50
      },
      {
        "id": 3092,
        "Name": "SALINAS",
        "Ident": "SNS",
        "Type": "VORTAC",
        "Lat": 36.66,
        "Lon": -121.60,
        "Frequency": 117.30,
        "Channel": 120,
        "Tacan_DME_Mode": "X",
        "Course": 230.00,
        "Distance": 65.70
      },
      {
        "id": 3093,
        "Name": "SAN JOSE",
        "Ident": "SJC",
        "Type": "VOR_DME",
        "Lat": 37.37,
        "Lon": -121.94,
        "Frequency": 114.10,
        "Channel": 88,
        "Tacan_DME_Mode": "X",
        "Course": 270.00,
        "Distance": 65.80
      },
      {
        "id": 3094,
        "Name": "LEMOORE",
        "Ident": "NLC",
        "Type": "TACAN",
        "Lat": 36.34,
        "Lon": -119.96,
        "Frequency": 0.00,
        "Channel": 80,
        "Tacan_DME_Mode": "X",
        "Course": 155.00,
        "Distance": 68.50
      }
    ],
    "Runways": [
      {
        "id": 485,
        "lowID": "13",
        "highID": "31",
        "Length": 11802.00,
        "Width": 150.00,
        "SurfaceType": "PEM",
        "RunwayCondition": "F",
        "MagHdgHi": 307.00,
        "MagHdgLow": 127.00,
        "TrueHdgHi": 321.00,
        "TrueHdgLow": 141.00,
        "Coord_Lat_Hi": 37.39,
        "Coord_Lat_Lo": 0.00,
        "Coord_Lon_Hi": -120.55,
        "Coord_Lon_Lo": -120.58,
        "Elev_Hi": 178.00,
        "Elev_Low": 191.00,
        "Slope_Hi": 0.10,
        "Slope_Low": 0.10,
        "TDZE_Hi": 181.00,
        "TDZE_Low": 191.00,
        "Overrun_Hi_Length": 0.00,
        "Overrun_Low_Length": 0.00,
        "Overrun_Hi_Type": "AM2",
        "Overrun_Low_Type": "AM2"
      }
    ],
    "id": 357,
    "ICAO": "KMER",
    "FAA": "MER",
    "Country": "United States",
    "Name": "CASTLE",
    "State": "California",
    "Elevation": 190.60,
    "Lat": 37.38,
    "Lon": -120.56,
    "MGRS": "10SGG1530739856",
    "Time_Conversion": "UTC-8(-7DT)"
  },
  {
    "Communications": [
      {
        "Freqs": [
          {
            "id": 2161,
            "Freq": 124.65
          }
        ],
        "id": 1508,
        "Name": "AWOS 3"
      },
      {
        "Freqs": [],
        "id": 1509,
        "Name": "CLNC DEL"
      },
      {
        "Freqs": [
          {
            "id": 2162,
            "Freq": 122.97
          }
        ],
        "id": 1510,
        "Name": "CTAF/UNICOM"
      },
      {
        "Freqs": [
          {
            "id": 2163,
            "Freq": 123.70
          },
          {
            "id": 2164,
            "Freq": 125.10
          },
          {
            "id": 2165,
            "Freq": 338.25
          },
          {
            "id": 2166,
            "Freq": 363.20
          }
        ],
        "id": 1511,
        "Name": "NORCAL APP/DEP"
      },
      {
        "Freqs": [
          {
            "id": 2167,
            "Freq": 121.25
          },
          {
            "id": 2168,
            "Freq": 327.00
          }
        ],
        "id": 1512,
        "Name": "OAKLAND CNTR"
      }
    ],
    "Navaids": [
      {
        "id": 3095,
        "Name": "LINDEN",
        "Ident": "LIN",
        "Type": "VOR_DME",
        "Lat": 38.07,
        "Lon": -121.00,
        "Frequency": 114.80,
        "Channel": 95,
        "Tacan_DME_Mode": "X",
        "Course": 276.00,
        "Distance": 28.10
      },
      {
        "id": 3096,
        "Name": "MODESTO",
        "Ident": "MOD",
        "Type": "VOR_DME",
        "Lat": 37.62,
        "Lon": -120.95,
        "Frequency": 114.60,
        "Channel": 93,
        "Tacan_DME_Mode": "X",
        "Course": 227.00,
        "Distance": 35.40
      },
      {
        "id": 3097,
        "Name": "HANGTOWN",
        "Ident": "HNW",
        "Type": "VOR_DME",
        "Lat": 38.72,
        "Lon": -120.74,
        "Frequency": 115.50,
        "Channel": 102,
        "Tacan_DME_Mode": "X",
        "Course": 339.00,
        "Distance": 44.50
      },
      {
        "id": 3098,
        "Name": "EL NIDO",
        "Ident": "HYP",
        "Type": "VOR_DME",
        "Lat": 37.21,
        "Lon": -120.40,
        "Frequency": 114.20,
        "Channel": 89,
        "Tacan_DME_Mode": "X",
        "Course": 179.00,
        "Distance": 48.60
      },
      {
        "id": 3099,
        "Name": "TRACY",
        "Ident": "TCY",
        "Type": "NDB",
        "Lat": 37.69,
        "Lon": -121.44,
        "Frequency": 203.00,
        "Channel": -1,
        "Tacan_DME_Mode": "",
        "Course": 248.00,
        "Distance": 53.00
      },
      {
        "id": 3100,
        "Name": "SACRAMENTO",
        "Ident": "SAC",
        "Type": "VORTAC",
        "Lat": 38.44,
        "Lon": -121.55,
        "Frequency": 115.20,
        "Channel": 99,
        "Tacan_DME_Mode": "X",
        "Course": 295.00,
        "Distance": 59.20
      },
      {
        "id": 3101,
        "Name": "MC CLELLAN",
        "Ident": "MCC",
        "Type": "VOR_DME",
        "Lat": 38.66,
        "Lon": -121.40,
        "Frequency": 109.20,
        "Channel": 29,
        "Tacan_DME_Mode": "X",
        "Course": 310.00,
        "Distance": 60.30
      },
      {
        "id": 3102,
        "Name": "FRIANT",
        "Ident": "FRA",
        "Type": "VORTAC",
        "Lat": 37.10,
        "Lon": -119.59,
        "Frequency": 115.60,
        "Channel": 103,
        "Tacan_DME_Mode": "X",
        "Course": 145.00,
        "Distance": 67.90
      },
      {
        "id": 3103,
        "Name": "SQUAW VALLEY",
        "Ident": "SWR",
        "Type": "VOR_DME",
        "Lat": 39.18,
        "Lon": -120.26,
        "Frequency": 113.20,
        "Channel": 79,
        "Tacan_DME_Mode": "X",
        "Course": 6.00,
        "Distance": 69.30
      },
      {
        "id": 3104,
        "Name": "TRAVIS",
        "Ident": "SUU",
        "Type": "TACAN",
        "Lat": 38.24,
        "Lon": -121.94,
        "Frequency": 0.00,
        "Channel": 113,
        "Tacan_DME_Mode": "X",
        "Course": 281.00,
        "Distance": 73.60
      }
    ],
    "Runways": [
      {
        "id": 486,
        "lowID": "17",
        "highID": "35",
        "Length": 4673.00,
        "Width": 75.00,
        "SurfaceType": "ASP",
        "RunwayCondition": "G",
        "MagHdgHi": 356.40,
        "MagHdgLow": 176.40,
        "TrueHdgHi": 10.20,
        "TrueHdgLow": 190.20,
        "Coord_Lat_Hi": 38.03,
        "Coord_Lat_Lo": 0.00,
        "Coord_Lon_Hi": -120.41,
        "Coord_Lon_Lo": -120.41,
        "Elev_Hi": 2074.00,
        "Elev_Low": 2121.00,
        "Slope_Hi": 1.00,
        "Slope_Low": 1.00,
        "TDZE_Hi": 2105.00,
        "TDZE_Low": 2112.00,
        "Overrun_Hi_Length": 212.00,
        "Overrun_Low_Length": 450.00,
        "Overrun_Hi_Type": "ASP",
        "Overrun_Low_Type": "GRE"
      },
      {
        "id": 487,
        "lowID": "11",
        "highID": "29",
        "Length": 2607.00,
        "Width": 50.00,
        "SurfaceType": "GRS",
        "RunwayCondition": "G",
        "MagHdgHi": 299.80,
        "MagHdgLow": 119.80,
        "TrueHdgHi": 313.60,
        "TrueHdgLow": 133.60,
        "Coord_Lat_Hi": 38.03,
        "Coord_Lat_Lo": 0.00,
        "Coord_Lon_Hi": -120.41,
        "Coord_Lon_Lo": -120.42,
        "Elev_Hi": 2078.00,
        "Elev_Low": 2101.00,
        "Slope_Hi": 0.90,
        "Slope_Low": 0.90,
        "TDZE_Hi": 0.00,
        "TDZE_Low": 0.00,
        "Overrun_Hi_Length": 0.00,
        "Overrun_Low_Length": 0.00,
        "Overrun_Hi_Type": "AM2",
        "Overrun_Low_Type": "AM2"
      }
    ],
    "id": 358,
    "ICAO": "",
    "FAA": "O22",
    "Country": "United States",
    "Name": "COLUMBIA",
    "State": "California",
    "Elevation": 2120.70,
    "Lat": 38.03,
    "Lon": -120.41,
    "MGRS": "10SGH2692012345",
    "Time_Conversion": ""
  },
  {
    "Communications": [
      {
        "Freqs": [
          {
            "id": 2169,
            "Freq": 122.90
          }
        ],
        "id": 1513,
        "Name": "CTAF"
      },
      {
        "Freqs": [
          {
            "id": 2170,
            "Freq": 121.25
          },
          {
            "id": 2171,
            "Freq": 327.00
          }
        ],
        "id": 1514,
        "Name": "OAKLAND CNTR"
      }
    ],
    "Navaids": [
      {
        "id": 3105,
        "Name": "MODESTO",
        "Ident": "MOD",
        "Type": "VOR_DME",
        "Lat": 37.62,
        "Lon": -120.95,
        "Frequency": 114.60,
        "Channel": 93,
        "Tacan_DME_Mode": "X",
        "Course": 250.00,
        "Distance": 39.70
      },
      {
        "id": 3106,
        "Name": "EL NIDO",
        "Ident": "HYP",
        "Type": "VOR_DME",
        "Lat": 37.21,
        "Lon": -120.40,
        "Frequency": 114.20,
        "Channel": 89,
        "Tacan_DME_Mode": "X",
        "Course": 195.00,
        "Distance": 39.90
      },
      {
        "id": 3107,
        "Name": "LINDEN",
        "Ident": "LIN",
        "Type": "VOR_DME",
        "Lat": 38.07,
        "Lon": -121.00,
        "Frequency": 114.80,
        "Channel": 95,
        "Tacan_DME_Mode": "X",
        "Course": 288.00,
        "Distance": 41.20
      },
      {
        "id": 3108,
        "Name": "FRIANT",
        "Ident": "FRA",
        "Type": "VORTAC",
        "Lat": 37.10,
        "Lon": -119.59,
        "Frequency": 115.60,
        "Channel": 103,
        "Tacan_DME_Mode": "X",
        "Course": 148.00,
        "Distance": 53.20
      },
      {
        "id": 3109,
        "Name": "HANGTOWN",
        "Ident": "HNW",
        "Type": "VOR_DME",
        "Lat": 38.72,
        "Lon": -120.74,
        "Frequency": 115.50,
        "Channel": 102,
        "Tacan_DME_Mode": "X",
        "Course": 333.00,
        "Distance": 58.30
      },
      {
        "id": 3110,
        "Name": "TRACY",
        "Ident": "TCY",
        "Type": "NDB",
        "Lat": 37.69,
        "Lon": -121.44,
        "Frequency": 203.00,
        "Channel": -1,
        "Tacan_DME_Mode": "",
        "Course": 261.00,
        "Distance": 61.10
      },
      {
        "id": 3111,
        "Name": "CLOVIS",
        "Ident": "CZQ",
        "Type": "VORTAC",
        "Lat": 36.88,
        "Lon": -119.81,
        "Frequency": 112.90,
        "Channel": 76,
        "Tacan_DME_Mode": "X",
        "Course": 163.00,
        "Distance": 61.10
      },
      {
        "id": 3112,
        "Name": "SACRAMENTO",
        "Ident": "SAC",
        "Type": "VORTAC",
        "Lat": 38.44,
        "Lon": -121.55,
        "Frequency": 115.20,
        "Channel": 99,
        "Tacan_DME_Mode": "X",
        "Course": 299.00,
        "Distance": 73.80
      },
      {
        "id": 3113,
        "Name": "PANOCHE",
        "Ident": "PXN",
        "Type": "VORTAC",
        "Lat": 36.71,
        "Lon": -120.77,
        "Frequency": 112.60,
        "Channel": 73,
        "Tacan_DME_Mode": "X",
        "Course": 203.00,
        "Distance": 74.50
      },
      {
        "id": 3114,
        "Name": "MC CLELLAN",
        "Ident": "MCC",
        "Type": "VOR_DME",
        "Lat": 38.66,
        "Lon": -121.40,
        "Frequency": 109.20,
        "Channel": 29,
        "Tacan_DME_Mode": "X",
        "Course": 310.00,
        "Distance": 75.40
      }
    ],
    "Runways": [
      {
        "id": 488,
        "lowID": "09",
        "highID": "27",
        "Length": 3624.00,
        "Width": 50.00,
        "SurfaceType": "ASP",
        "RunwayCondition": "G",
        "MagHdgHi": 276.60,
        "MagHdgLow": 96.60,
        "TrueHdgHi": 290.50,
        "TrueHdgLow": 110.50,
        "Coord_Lat_Hi": 37.86,
        "Coord_Lat_Lo": 0.00,
        "Coord_Lon_Hi": -120.17,
        "Coord_Lon_Lo": -120.18,
        "Elev_Hi": 2933.00,
        "Elev_Low": 2895.00,
        "Slope_Hi": 1.00,
        "Slope_Low": 1.00,
        "TDZE_Hi": 2933.00,
        "TDZE_Low": 2922.00,
        "Overrun_Hi_Length": 200.00,
        "Overrun_Low_Length": 100.00,
        "Overrun_Hi_Type": "GVL",
        "Overrun_Low_Type": "GVL"
      }
    ],
    "id": 359,
    "ICAO": "",
    "FAA": "E45",
    "Country": "United States",
    "Name": "PINE MOUNTAIN LAKE",
    "State": "California",
    "Elevation": 2932.60,
    "Lat": 37.86,
    "Lon": -120.17,
    "MGRS": "10SGG4820594220",
    "Time_Conversion": ""
  },
  {
    "Communications": [
      {
        "Freqs": [
          {
            "id": 2172,
            "Freq": 140.00
          },
          {
            "id": 2173,
            "Freq": 298.30
          }
        ],
        "id": 1515,
        "Name": "ANG OPS"
      },
      {
        "Freqs": [
          {
            "id": 2174,
            "Freq": 118.50
          },
          {
            "id": 2175,
            "Freq": 119.60
          },
          {
            "id": 2176,
            "Freq": 132.35
          },
          {
            "id": 2177,
            "Freq": 268.70
          },
          {
            "id": 2178,
            "Freq": 323.25
          },
          {
            "id": 2179,
            "Freq": 351.95
          }
        ],
        "id": 1516,
        "Name": "APP/DEP"
      },
      {
        "Freqs": [
          {
            "id": 2180,
            "Freq": 40.95
          },
          {
            "id": 2181,
            "Freq": 132.00
          },
          {
            "id": 2182,
            "Freq": 255.80
          }
        ],
        "id": 1517,
        "Name": "ARNG OPS"
      },
      {
        "Freqs": [],
        "id": 1518,
        "Name": "ASOS"
      },
      {
        "Freqs": [
          {
            "id": 2183,
            "Freq": 121.35
          },
          {
            "id": 2184,
            "Freq": 273.60
          }
        ],
        "id": 1519,
        "Name": "ATIS"
      },
      {
        "Freqs": [
          {
            "id": 2185,
            "Freq": 124.35
          },
          {
            "id": 2186,
            "Freq": 348.60
          }
        ],
        "id": 1520,
        "Name": "CLNC DEL"
      },
      {
        "Freqs": [
          {
            "id": 2187,
            "Freq": 121.70
          },
          {
            "id": 2188,
            "Freq": 348.60
          }
        ],
        "id": 1521,
        "Name": "GND"
      },
      {
        "Freqs": [
          {
            "id": 2189,
            "Freq": 118.20
          },
          {
            "id": 2190,
            "Freq": 251.10
          }
        ],
        "id": 1522,
        "Name": "TWR"
      },
      {
        "Freqs": [
          {
            "id": 2191,
            "Freq": 122.95
          }
        ],
        "id": 1523,
        "Name": "UNICOM"
      }
    ],
    "Navaids": [
      {
        "id": 3115,
        "Name": "CLOVIS",
        "Ident": "CZQ",
        "Type": "VORTAC",
        "Lat": 36.88,
        "Lon": -119.81,
        "Frequency": 112.90,
        "Channel": 76,
        "Tacan_DME_Mode": "X",
        "Course": 324.00,
        "Distance": 8.00
      },
      {
        "id": 3116,
        "Name": "FRIANT",
        "Ident": "FRA",
        "Type": "VORTAC",
        "Lat": 37.10,
        "Lon": -119.59,
        "Frequency": 115.60,
        "Channel": 103,
        "Tacan_DME_Mode": "X",
        "Course": 17.00,
        "Distance": 20.50
      },
      {
        "id": 3117,
        "Name": "VISALIA",
        "Ident": "VIS",
        "Type": "VOR_DME",
        "Lat": 36.36,
        "Lon": -119.48,
        "Frequency": 109.40,
        "Channel": 31,
        "Tacan_DME_Mode": "X",
        "Course": 155.00,
        "Distance": 27.10
      },
      {
        "id": 3118,
        "Name": "LEMOORE",
        "Ident": "NLC",
        "Type": "TACAN",
        "Lat": 36.34,
        "Lon": -119.96,
        "Frequency": 0.00,
        "Channel": 80,
        "Tacan_DME_Mode": "X",
        "Course": 205.00,
        "Distance": 28.50
      },
      {
        "id": 3119,
        "Name": "EL NIDO",
        "Ident": "HYP",
        "Type": "VOR_DME",
        "Lat": 37.21,
        "Lon": -120.40,
        "Frequency": 114.20,
        "Channel": 89,
        "Tacan_DME_Mode": "X",
        "Course": 309.00,
        "Distance": 42.20
      },
      {
        "id": 3120,
        "Name": "SALYER FARMS",
        "Ident": "COR",
        "Type": "NDB",
        "Lat": 36.06,
        "Lon": -119.53,
        "Frequency": 205.00,
        "Channel": -1,
        "Tacan_DME_Mode": "",
        "Course": 168.00,
        "Distance": 43.50
      },
      {
        "id": 3121,
        "Name": "PANOCHE",
        "Ident": "PXN",
        "Type": "VORTAC",
        "Lat": 36.71,
        "Lon": -120.77,
        "Frequency": 112.60,
        "Channel": 73,
        "Tacan_DME_Mode": "X",
        "Course": 266.00,
        "Distance": 51.20
      },
      {
        "id": 3122,
        "Name": "PRIEST",
        "Ident": "ROM",
        "Type": "VOR",
        "Lat": 36.14,
        "Lon": -120.66,
        "Frequency": 110.00,
        "Channel": -1,
        "Tacan_DME_Mode": "",
        "Course": 231.00,
        "Distance": 59.60
      },
      {
        "id": 3123,
        "Name": "TULE",
        "Ident": "TTE",
        "Type": "VOR_DME",
        "Lat": 35.91,
        "Lon": -119.02,
        "Frequency": 109.20,
        "Channel": 29,
        "Tacan_DME_Mode": "X",
        "Course": 147.00,
        "Distance": 61.80
      },
      {
        "id": 3124,
        "Name": "AVENAL",
        "Ident": "AVE",
        "Type": "VOR_DME",
        "Lat": 35.64,
        "Lon": -119.97,
        "Frequency": 117.10,
        "Channel": 118,
        "Tacan_DME_Mode": "X",
        "Course": 191.00,
        "Distance": 68.80
      }
    ],
    "Runways": [
      {
        "id": 489,
        "lowID": "11L",
        "highID": "29R",
        "Length": 9539.00,
        "Width": 150.00,
        "SurfaceType": "ASP",
        "RunwayCondition": "G",
        "MagHdgHi": 292.40,
        "MagHdgLow": 112.40,
        "TrueHdgHi": 305.40,
        "TrueHdgLow": 125.40,
        "Coord_Lat_Hi": 36.78,
        "Coord_Lat_Lo": 0.00,
        "Coord_Lon_Hi": -119.70,
        "Coord_Lon_Lo": -119.73,
        "Elev_Hi": 332.00,
        "Elev_Low": 333.00,
        "Slope_Hi": 0.00,
        "Slope_Low": 0.00,
        "TDZE_Hi": 333.00,
        "TDZE_Low": 336.00,
        "Overrun_Hi_Length": 1000.00,
        "Overrun_Low_Length": 850.00,
        "Overrun_Hi_Type": "CON",
        "Overrun_Low_Type": "CON"
      },
      {
        "id": 490,
        "lowID": "11R",
        "highID": "29L",
        "Length": 8008.00,
        "Width": 150.00,
        "SurfaceType": "ASP",
        "RunwayCondition": "G",
        "MagHdgHi": 292.30,
        "MagHdgLow": 112.30,
        "TrueHdgHi": 305.30,
        "TrueHdgLow": 125.30,
        "Coord_Lat_Hi": 36.78,
        "Coord_Lat_Lo": 0.00,
        "Coord_Lon_Hi": -119.71,
        "Coord_Lon_Lo": -119.73,
        "Elev_Hi": 330.00,
        "Elev_Low": 330.00,
        "Slope_Hi": 0.00,
        "Slope_Low": 0.00,
        "TDZE_Hi": 331.00,
        "TDZE_Low": 333.00,
        "Overrun_Hi_Length": 0.00,
        "Overrun_Low_Length": 0.00,
        "Overrun_Hi_Type": "AM2",
        "Overrun_Low_Type": "AM2"
      }
    ],
    "id": 360,
    "ICAO": "KFAT",
    "FAA": "FAT",
    "Country": "United States",
    "Name": "FRESNO YOSEMITE INTL",
    "State": "California",
    "Elevation": 335.50,
    "Lat": 36.77,
    "Lon": -119.71,
    "MGRS": "11SKA5735773534",
    "Time_Conversion": "UTC-8(-7DT)"
  },
  {
    "Communications": [
      {
        "Freqs": [
          {
            "id": 2192,
            "Freq": 135.22
          }
        ],
        "id": 1524,
        "Name": "AWOS 3"
      },
      {
        "Freqs": [
          {
            "id": 2193,
            "Freq": 123.00
          }
        ],
        "id": 1525,
        "Name": "CTAF/UNICOM"
      },
      {
        "Freqs": [
          {
            "id": 2194,
            "Freq": 119.00
          },
          {
            "id": 2195,
            "Freq": 119.60
          },
          {
            "id": 2196,
            "Freq": 323.25
          },
          {
            "id": 2197,
            "Freq": 351.95
          }
        ],
        "id": 1526,
        "Name": "FRESNO APP/DEP"
      }
    ],
    "Navaids": [
      {
        "id": 3125,
        "Name": "CLOVIS",
        "Ident": "CZQ",
        "Type": "VORTAC",
        "Lat": 36.88,
        "Lon": -119.81,
        "Frequency": 112.90,
        "Channel": 76,
        "Tacan_DME_Mode": "X",
        "Course": 2.00,
        "Distance": 9.10
      },
      {
        "id": 3126,
        "Name": "LEMOORE",
        "Ident": "NLC",
        "Type": "TACAN",
        "Lat": 36.34,
        "Lon": -119.96,
        "Frequency": 0.00,
        "Channel": 80,
        "Tacan_DME_Mode": "X",
        "Course": 197.00,
        "Distance": 24.30
      },
      {
        "id": 3127,
        "Name": "FRIANT",
        "Ident": "FRA",
        "Type": "VORTAC",
        "Lat": 37.10,
        "Lon": -119.59,
        "Frequency": 115.60,
        "Channel": 103,
        "Tacan_DME_Mode": "X",
        "Course": 26.00,
        "Distance": 24.80
      },
      {
        "id": 3128,
        "Name": "VISALIA",
        "Ident": "VIS",
        "Type": "VOR_DME",
        "Lat": 36.36,
        "Lon": -119.48,
        "Frequency": 109.40,
        "Channel": 31,
        "Tacan_DME_Mode": "X",
        "Course": 143.00,
        "Distance": 27.30
      },
      {
        "id": 3129,
        "Name": "EL NIDO",
        "Ident": "HYP",
        "Type": "VOR_DME",
        "Lat": 37.21,
        "Lon": -120.40,
        "Frequency": 114.20,
        "Channel": 89,
        "Tacan_DME_Mode": "X",
        "Course": 317.00,
        "Distance": 40.40
      },
      {
        "id": 3130,
        "Name": "SALYER FARMS",
        "Ident": "COR",
        "Type": "NDB",
        "Lat": 36.06,
        "Lon": -119.53,
        "Frequency": 205.00,
        "Channel": -1,
        "Tacan_DME_Mode": "",
        "Course": 161.00,
        "Distance": 42.30
      },
      {
        "id": 3131,
        "Name": "PANOCHE",
        "Ident": "PXN",
        "Type": "VORTAC",
        "Lat": 36.71,
        "Lon": -120.77,
        "Frequency": 112.60,
        "Channel": 73,
        "Tacan_DME_Mode": "X",
        "Course": 269.00,
        "Distance": 46.20
      },
      {
        "id": 3132,
        "Name": "PRIEST",
        "Ident": "ROM",
        "Type": "VOR",
        "Lat": 36.14,
        "Lon": -120.66,
        "Frequency": 110.00,
        "Channel": -1,
        "Tacan_DME_Mode": "",
        "Course": 229.00,
        "Distance": 54.10
      },
      {
        "id": 3133,
        "Name": "TULE",
        "Ident": "TTE",
        "Type": "VOR_DME",
        "Lat": 35.91,
        "Lon": -119.02,
        "Frequency": 109.20,
        "Channel": 29,
        "Tacan_DME_Mode": "X",
        "Course": 141.00,
        "Distance": 62.50
      },